,well_id,results,chemical,date,units,qualifer,rl,latitude,longitude,well_type,well_depth_ft,top_of_screen_ft,screen_length_ft,source,source_name,other_names,year,month
68,ED 450,1.0,TCE,2003-04-24,UG/L,<,,38.72948785,-120.71447409999999,DOMESTIC,,,,GAMA,ED 450,VERDE ROBLES,2003,4
162,ED 659,1.0,TCE,2004-05-24,UG/L,<,,38.690327328,-120.658373923,DOMESTIC,,,,GAMA,ED 659,ALAMEDA ROAD,2004,5
177,ED 699,1.0,TCE,2004-06-16,UG/L,<,,38.5007394,-121.1365659,DOMESTIC,,,,GAMA,ED 699,Bisbee Drive,2004,6
193,ED 326,1.0,TCE,2003-02-14,UG/L,<,,38.69747528,-120.7752145,DOMESTIC,,,,GAMA,ED 326,WASHBOARD LANE,2003,2
239,ED 463,1.0,TCE,2003-05-08,UG/L,<,,38.80589972,-120.93293229999999,DOMESTIC,,,,GAMA,ED 463,GODS WAY,2003,5
354,ED 664,1.0,TCE,2004-05-26,UG/L,<,,38.802311441,-120.91452017,DOMESTIC,,,,GAMA,ED 664,AMOLOC LANE,2004,5
374,ED 697,1.0,TCE,2004-05-11,UG/L,<,,39.0009833,-121.26335556,DOMESTIC,,,,GAMA,ED 697,Thermalands Road,2004,5
527,ED 653,1.0,TCE,2004-06-01,UG/L,<,,38.815952226,-120.99881286,DOMESTIC,,,,GAMA,ED 653,QUAIL HOLLOW ROAD,2004,6
609,ED 388,1.0,TCE,2003-03-25,UG/L,<,,38.711574,-120.89409099999999,DOMESTIC,,,,GAMA,ED 388,GREEN VALLEY ROAD,2003,3
627,ED 420,1.0,TCE,2003-04-03,UG/L,<,,38.71734954,-120.9768153,DOMESTIC,,,,GAMA,ED 420,PINE HILL ROAD,2003,4
663,ED 495,1.0,TCE,2004-04-20,UG/L,<,,38.655014235,-120.865277303,DOMESTIC,,,,GAMA,ED 495,CHINA HILL ROAD,2004,4
763,ED 367,1.0,TCE,2003-03-12,UG/L,<,,38.6053412,-120.9667225,DOMESTIC,,,,GAMA,ED 367,BULLARD DRIVE,2003,3
863,ED 611,1.0,TCE,2004-05-05,UG/L,<,,38.783848182,-120.96322428799999,DOMESTIC,,,,GAMA,ED 611,PAW PRINT PATH,2004,5
902,ED 696,1.0,TCE,2004-05-18,UG/L,<,,38.544174100000006,-120.7185247,DOMESTIC,,,,GAMA,ED 696,Bridgeport School Road,2004,5
1005,ED 467,1.0,TCE,2003-05-13,UG/L,<,,38.70775987,-121.0081713,DOMESTIC,,,,GAMA,ED 467,VELVET LANE,2003,5
1113,ED 668,1.0,TCE,2004-05-26,UG/L,<,,38.802748333000004,-120.91548822,DOMESTIC,,,,GAMA,ED 668,AMOLOC LANE,2004,5
1165,ED 344,1.0,TCE,2003-02-26,UG/L,<,,38.736055900000004,-120.7243017,DOMESTIC,,,,GAMA,ED 344,STILL MEADOWS ROAD,2003,2
1206,ED 419,1.0,TCE,2003-04-03,UG/L,<,,38.7055312,-120.96801370000001,DOMESTIC,,,,GAMA,ED 419,SORNEY LOOP,2003,4
1320,ED 643,1.0,TCE,2004-05-21,UG/L,<,,38.605234533,-120.92795264700001,DOMESTIC,,,,GAMA,ED 643,FRENCH CREEK ROAD,2004,5
1438,ED 489,1.0,TCE,2003-05-28,UG/L,<,,38.80500134,-120.93803500000001,DOMESTIC,,,,GAMA,ED 489,GODS WAY,2003,5
1786,ED 313,1.0,TCE,2003-02-14,UG/L,<,,38.6800155,-120.7196973,DOMESTIC,,,,GAMA,ED 313,SPRINGER ROAD,2003,2
1820,ED 310,1.0,TCE,2003-02-04,UG/L,<,,38.67487996,-120.7699012,DOMESTIC,,,,GAMA,ED 310,OAK HILL ROAD,2003,2
1864,ED 350,1.0,TCE,2003-03-07,UG/L,<,,38.59875917,-120.95170320000001,DOMESTIC,,,,GAMA,ED 350,SHADOW HAWK DRIVE,2003,3
1979,ED 671,1.0,TCE,2004-06-01,UG/L,<,,38.850990142,-121.028484237,DOMESTIC,,,,GAMA,ED 671,OAK VIEW COURT,2004,6
2016,ED 490,1.0,TCE,2004-04-14,UG/L,<,,38.570435703,-120.84549445799999,DOMESTIC,,,,GAMA,ED 490,HIGHWAY 49,2004,4
2220,ED 336,1.0,TCE,2003-02-21,UG/L,<,,38.70071394,-120.7626603,DOMESTIC,,,,GAMA,ED 336,CEDAR OAK ROAD,2003,2
2561,ED 301,1.0,TCE,2003-04-09,UG/L,<,,38.69289634,-120.71316979999999,DOMESTIC,,,,GAMA,ED 301,PLEASANT VALLEY ROAD,2003,4
2569,ED 323,1.0,TCE,2003-02-14,UG/L,<,,38.67900088,-120.71867859999999,DOMESTIC,,,,GAMA,ED 323,TERRA SERENA,2003,2
2630,ED 520,1.0,TCE,2004-04-12,UG/L,<,,38.668996354,-120.823817835,DOMESTIC,,,,GAMA,ED 520,CALICO MINE ROAD,2004,4
2820,ED 673,1.0,TCE,2004-06-01,UG/L,<,,38.832198106,-121.025415264,DOMESTIC,,,,GAMA,ED 673,PILOT CREEK LANE,2004,6
2864,ED 380,1.0,TCE,2003-03-07,UG/L,<,,38.59034765,-120.9495639,DOMESTIC,,,,GAMA,ED 380,SHADOW HAWK DRIVE,2003,3
2937,ED 594,1.0,TCE,2004-05-05,UG/L,<,,38.696284960999996,-120.95041338799999,DOMESTIC,,,,GAMA,ED 594,CARLSON DRIVE,2004,5
3283,ED 436,1.0,TCE,2003-04-09,UG/L,<,,38.612480299999994,-120.9587269,DOMESTIC,,,,GAMA,ED 436,SOUTH SHINGLE ROAD,2003,4
3358,ED 593,1.0,TCE,2004-05-12,UG/L,<,,38.665613164,-120.95672473,DOMESTIC,,,,GAMA,ED 593,KIOWA WAY,2004,5
3405,ED 586,1.0,TCE,2004-04-29,UG/L,<,,38.829497703,-121.03260547200001,DOMESTIC,,,,GAMA,ED 586,PILOT VIEW DRIVE,2004,4
3416,ED 686,1.0,TCE,2004-06-02,UG/L,<,,38.810038678000005,-121.039359044,DOMESTIC,,,,GAMA,ED 686,CHEETAH TRAIL,2004,6
3429,ED 585,1.0,TCE,2004-04-28,UG/L,<,,38.80136522,-120.907592105,DOMESTIC,,,,GAMA,ED 585,FIREHOUSE ROAD,2004,4
3477,ED 377,1.0,TCE,2003-03-17,UG/L,<,,38.59039769,-120.9786615,DOMESTIC,,,,GAMA,ED 377,MITCHELL ROAD,2003,3
3554,ED 322,1.0,TCE,2003-02-14,UG/L,<,,38.6800155,-120.7196973,DOMESTIC,,,,GAMA,ED 322,SPRINGER ROAD,2003,2
3723,ED 373,1.0,TCE,2003-03-18,UG/L,<,,38.70135379999999,-120.9503525,DOMESTIC,,,,GAMA,ED 373,ROLLING RANCH,2003,3
3812,ED 596,1.0,TCE,2004-05-05,UG/L,<,,38.655809751999996,-120.893910421,DOMESTIC,,,,GAMA,ED 596,LUMBO LANE,2004,5
3877,ED 474,1.0,TCE,2003-05-15,UG/L,<,,38.8064344,-120.9485262,DOMESTIC,,,,GAMA,ED 474,WAGNER MINE ROAD,2003,5
3936,ED 315,1.0,TCE,2003-02-11,UG/L,<,,38.68987232,-120.77220890000001,DOMESTIC,,,,GAMA,ED 315,KEARNS ROAD,2003,2
3976,ED 488,1.0,TCE,2003-05-29,UG/L,<,,38.58840066,-120.9560682,DOMESTIC,,,,GAMA,ED 488,TALON DRIVE,2003,5
3989,ED 551,1.0,TCE,2004-05-04,UG/L,<,,38.839946399999995,-121.02467,DOMESTIC,,,,GAMA,ED 551,LOWELL LANE,2004,5
3995,ED 600,1.0,TCE,2004-05-05,UG/L,<,,38.756820955,-120.77431138799999,DOMESTIC,,,,GAMA,ED 600,ROSE LANE,2004,5
4073,ED 422,1.0,TCE,2003-03-27,UG/L,<,,38.77421578,-120.86662890000001,DOMESTIC,,,,GAMA,ED 422,BAR CREST DRIVE,2003,3
4239,ED 456,1.0,TCE,2003-05-06,UG/L,<,,38.80449457,-120.93028090000001,DOMESTIC,,,,GAMA,ED 456,EL CAMPO ROAD,2003,5
4262,ED 319,1.0,TCE,2003-02-13,UG/L,<,,38.72203802,-120.73504890000001,DOMESTIC,,,,GAMA,ED 319,NEWTOWN ROAD,2003,2
4271,ED 581,1.0,TCE,2004-04-26,UG/L,<,,38.789536493,-120.841172794,DOMESTIC,,,,GAMA,ED 581,STEWART MINE ROAD,2004,4
4296,ED 379,1.0,TCE,2003-03-17,UG/L,<,,38.59123498,-120.9814344,DOMESTIC,,,,GAMA,ED 379,MITCHELL ROAD,2003,3
4609,TUL971,0.0,TCE,2006-05-11,UG/L,ND,0.5,36.55847471,-119.25245430000001,DOMESTIC,,,,GAMA,TUL971,TUL971,2006,5
4632,TUL1505,0.0,TCE,2006-06-08,UG/L,ND,0.5,36.435,-119.2399,DOMESTIC,,,,GAMA,TUL1505,TUL1505,2006,6
4693,TUL983,0.0,TCE,2006-05-17,UG/L,ND,0.5,36.30234539,-119.1223358,DOMESTIC,,,,GAMA,TUL983,TUL983,2006,5
4720,TUL992,0.0,TCE,2006-05-16,UG/L,ND,0.5,36.11933651,-119.24804350000001,DOMESTIC,,,,GAMA,TUL992,TUL992,2006,5
4805,TUL1070,0.0,TCE,2006-06-14,UG/L,ND,0.5,36.49355,-119.3367367,DOMESTIC,,,,GAMA,TUL1070,TUL1070,2006,6
4938,TUL1027,0.0,TCE,2006-05-23,UG/L,ND,0.5,36.36552832,-119.2963591,DOMESTIC,,,,GAMA,TUL1027,TUL1027,2006,5
5025,TUL1057,0.0,TCE,2006-06-14,UG/L,ND,0.5,36.56932708,-119.3947831,DOMESTIC,,,,GAMA,TUL1057,TUL1057,2006,6
5045,TUL1074,0.0,TCE,2006-06-14,UG/L,ND,0.5,36.52973009,-119.3280024,DOMESTIC,,,,GAMA,TUL1074,TUL1074,2006,6
5137,TUL952,0.0,TCE,2006-04-26,UG/L,ND,0.5,35.86664274,-119.063515,DOMESTIC,,,,GAMA,TUL952,TUL952,2006,4
5205,TUL1016,0.0,TCE,2006-05-23,UG/L,ND,0.5,36.54744891,-119.2696325,DOMESTIC,,,,GAMA,TUL1016,TUL1016,2006,5
5212,TUL908,0.0,TCE,2006-04-18,UG/L,ND,0.5,36.3514886,-119.16347590000001,DOMESTIC,,,,GAMA,TUL908,TUL908,2006,4
5223,TUL986,0.0,TCE,2006-05-18,UG/L,ND,0.5,35.96084544,-119.219417,DOMESTIC,,,,GAMA,TUL986,TUL986,2006,5
5319,TUL1034,0.0,TCE,2006-06-08,UG/L,ND,0.5,36.04911998,-119.0688277,DOMESTIC,,,,GAMA,TUL1034,TUL1034,2006,6
5388,TUL926,0.0,TCE,2006-04-20,UG/L,ND,0.5,36.38644467,-119.28265459999999,DOMESTIC,,,,GAMA,TUL926,TUL926,2006,4
5429,MON167,0.5,TCE,2011-06-08,UG/L,<,0.5,36.80710916,-121.7188179,DOMESTIC,,,,GAMA,MON167,MON167,2011,6
5493,MON147,0.5,TCE,2011-05-26,UG/L,<,0.5,36.52517379,-121.8435087,DOMESTIC,,,,GAMA,MON147,MON147,2011,5
5580,MON111,0.5,TCE,2011-05-05,UG/L,<,0.5,36.81842683,-121.6498812,DOMESTIC,,,,GAMA,MON111,MON111,2011,5
6234,MON105,0.5,TCE,2011-05-04,UG/L,<,0.5,36.7943939,-121.66077150000001,DOMESTIC,,,,GAMA,MON105,MON105,2011,5
6288,MON110,0.5,TCE,2011-05-05,UG/L,<,0.5,36.79003925,-121.6734094,DOMESTIC,,,,GAMA,MON110,MON110,2011,5
6350,MON131,0.5,TCE,2011-05-18,UG/L,<,0.5,36.81853412,-121.6193055,DOMESTIC,,,,GAMA,MON131,MON131,2011,5
6609,MON116,0.5,TCE,2011-05-10,UG/L,<,0.5,36.56467670000001,-121.7028318,DOMESTIC,,,,GAMA,MON116,MON116,2011,5
6628,MON176,0.5,TCE,2011-06-22,UG/L,<,0.5,35.82675766,-121.1121753,DOMESTIC,,,,GAMA,MON176,MON176,2011,6
6747,MON174,0.5,TCE,2011-06-23,UG/L,<,0.5,36.46712953,-121.21508419999999,DOMESTIC,,,,GAMA,MON174,MON174,2011,6
6756,SD 950,0.5,TCE,2009-01-22,UG/L,<,0.5,33.189783333,-116.997572235,DOMESTIC,,,,GAMA,SD 950,SD 950,2009,1
6772,SD 801,0.5,TCE,2008-04-29,UG/L,<,0.5,33.02420051,-116.8473041,DOMESTIC,,,,GAMA,SD 801,SD 801,2008,4
6849,SD 918,0.5,TCE,2008-12-09,UG/L,<,0.5,33.074613688,-117.08919589799999,DOMESTIC,,,,GAMA,SD 918,SD 918,2008,12
6864,SD 898,0.5,TCE,2008-06-10,UG/L,<,0.5,32.99023484,-116.795578,DOMESTIC,,,,GAMA,SD 898,SD 898,2008,6
6887,TUL989,0.0,TCE,2006-06-07,UG/L,ND,0.5,36.13709293,-118.77027609999999,DOMESTIC,,,,GAMA,TUL989,TUL989,2006,6
6987,SD 887,0.5,TCE,2008-06-18,UG/L,<,0.5,32.8690003,-116.63529809999999,DOMESTIC,,,,GAMA,SD 887,SD 887,2008,6
7008,SD 817,0.5,TCE,2008-05-08,UG/L,<,0.5,33.04870883,-116.89034529999999,DOMESTIC,,,,GAMA,SD 817,SD 817,2008,5
7070,TUL1096,0.0,TCE,2006-06-22,UG/L,ND,0.5,36.2321322,-118.82518049999999,DOMESTIC,,,,GAMA,TUL1096,TUL1096,2006,6
7143,SD 896,0.5,TCE,2008-06-19,UG/L,<,0.5,32.6836727,-116.5035379,DOMESTIC,,,,GAMA,SD 896,SD 896,2008,6
7391,TUL994,0.0,TCE,2006-05-17,UG/L,ND,0.5,36.11087646,-118.8220997,DOMESTIC,,,,GAMA,TUL994,TUL994,2006,5
7418,SD 907,0.5,TCE,2008-12-03,UG/L,<,0.5,32.828810069,-116.72809913799999,DOMESTIC,,,,GAMA,SD 907,SD 907,2008,12
7469,SD 842,0.5,TCE,2008-05-28,UG/L,<,0.5,33.40793137,-117.2744892,DOMESTIC,,,,GAMA,SD 842,SD 842,2008,5
7528,TUL963,0.0,TCE,2006-05-10,UG/L,ND,0.5,36.63134996,-118.9973943,DOMESTIC,,,,GAMA,TUL963,TUL963,2006,5
7604,SD 865,0.5,TCE,2008-06-10,UG/L,<,0.5,32.91759865,-116.885605,DOMESTIC,,,,GAMA,SD 865,SD 865,2008,6
7783,SD 840,0.5,TCE,2008-05-27,UG/L,<,0.5,32.77641948,-116.91187620000001,DOMESTIC,,,,GAMA,SD 840,SD 840,2008,5
7866,TUL1097,0.0,TCE,2006-06-22,UG/L,ND,0.5,36.2238854,-118.810832,DOMESTIC,,,,GAMA,TUL1097,TUL1097,2006,6
8248,SD 920,0.5,TCE,2008-12-10,UG/L,<,0.5,33.127384887,-117.135764961,DOMESTIC,,,,GAMA,SD 920,SD 920,2008,12
8316,SD 838,0.5,TCE,2008-05-27,UG/L,<,0.5,32.78745247,-116.90964620000001,DOMESTIC,,,,GAMA,SD 838,SD 838,2008,5
8349,TUL1033,0.0,TCE,2006-05-25,UG/L,ND,0.5,36.34451045,-119.45464380000001,DOMESTIC,,,,GAMA,TUL1033,TUL1033,2006,5
8411,TUL1013,0.0,TCE,2006-05-24,UG/L,ND,0.5,36.31588167,-119.4336848,DOMESTIC,,,,GAMA,TUL1013,TUL1013,2006,5
8585,SD 837,0.5,TCE,2008-05-29,UG/L,<,0.5,32.97328661,-116.7962689,DOMESTIC,,,,GAMA,SD 837,SD 837,2008,5
8594,SD 858,0.5,TCE,2008-06-05,UG/L,<,0.5,32.78948039,-116.90694640000001,DOMESTIC,,,,GAMA,SD 858,SD 858,2008,6
8614,TUL937,0.0,TCE,2006-04-26,UG/L,ND,0.5,36.17873495,-119.46562620000002,DOMESTIC,,,,GAMA,TUL937,TUL937,2006,4
8863,TEH 816,0.0,TCE,2005-05-25,UG/L,ND,,40.029520700000006,-122.09523759999999,DOMESTIC,,,,GAMA,TEH 816,Sherwood,2005,5
8877,TEH 831,0.0,TCE,2005-05-18,UG/L,ND,,40.02658034,-122.08990443299999,DOMESTIC,,,,GAMA,TEH 831,Ricalia Lane,2005,5
8891,TEH 841,0.0,TCE,2005-05-17,UG/L,ND,,40.014601831,-122.089238524,DOMESTIC,,,,GAMA,TEH 841,Roosevelt Avenue,2005,5
9062,TEH 755,0.0,TCE,2005-05-04,UG/L,ND,,40.238915641999995,-122.240269301,DOMESTIC,,,,GAMA,TEH 755,Penneleme Road,2005,5
9099,TEH 728,0.0,TCE,2005-04-26,UG/L,ND,,40.04301429,-122.10861031200001,DOMESTIC,,,,GAMA,TEH 728,Butler Street,2005,4
9116,TEH 845,0.0,TCE,2005-05-17,UG/L,ND,,40.031291300999996,-122.102252025,DOMESTIC,,,,GAMA,TEH 845,Tehama Vina Road,2005,5
9146,TEH 871,0.0,TCE,2005-05-24,UG/L,ND,,40.0449987,-122.0995601,DOMESTIC,,,,GAMA,TEH 871,Hwy 99 East,2005,5
9161,TEH 848,0.0,TCE,2005-05-17,UG/L,ND,,40.030530354,-122.09715534,DOMESTIC,,,,GAMA,TEH 848,Tehama Vina Road,2005,5
9207,TEH 824,0.0,TCE,2005-05-19,UG/L,ND,,40.033184331,-122.097262506,DOMESTIC,,,,GAMA,TEH 824,Reeves Road,2005,5
9253,TEH 888,0.0,TCE,2005-06-02,UG/L,ND,,40.0476586,-122.1056045,DOMESTIC,,,,GAMA,TEH 888,Taft Street,2005,6
9489,TEH 785,0.0,TCE,2005-05-17,UG/L,ND,,40.042188900999996,-122.092850914,DOMESTIC,,,,GAMA,TEH 785,Buena Vista Avenue,2005,5
9526,TEH 868,0.0,TCE,2005-05-24,UG/L,ND,,40.045951,-122.1006662,DOMESTIC,,,,GAMA,TEH 868,Hwy 99 East,2005,5
9556,TEH 879,0.0,TCE,2005-05-24,UG/L,ND,,40.039906099999996,-122.09928640000001,DOMESTIC,,,,GAMA,TEH 879,Hwy 99 East,2005,5
9640,TEH 792,0.0,TCE,2005-05-10,UG/L,ND,,40.19606273,-122.230177759,DOMESTIC,,,,GAMA,TEH 792,Crestview Drive,2005,5
9665,TEH 725,0.0,TCE,2005-04-27,UG/L,ND,,40.040791161,-122.106335101,DOMESTIC,,,,GAMA,TEH 725,Hollis Street,2005,4
9927,TEH 830,0.0,TCE,2005-05-18,UG/L,ND,,40.252481285,-122.202848009,DOMESTIC,,,,GAMA,TEH 830,Canta Del Rio,2005,5
10098,TEH 739,0.0,TCE,2005-04-20,UG/L,ND,,40.292197716,-122.37700134399999,DOMESTIC,,,,GAMA,TEH 739,Dapple Gray Road,2005,4
10111,TEH 676,0.0,TCE,2005-04-13,UG/L,ND,,40.297926509,-122.273567055,DOMESTIC,,,,GAMA,TEH 676,Snively Road,2005,4
10264,TEH 692,0.0,TCE,2005-04-13,UG/L,ND,,40.279589299,-122.277507538,DOMESTIC,,,,GAMA,TEH 692,Happy Valley Trail,2005,4
10289,TEH 779,0.0,TCE,2005-04-26,UG/L,ND,,40.280734964000004,-122.31872125,DOMESTIC,,,,GAMA,TEH 779,Hummingbird Lane,2005,4
10384,TEH 773,0.0,TCE,2005-05-04,UG/L,ND,,40.251957882,-122.22278430600001,DOMESTIC,,,,GAMA,TEH 773,Parkway Drive,2005,5
10405,TEH 659,0.0,TCE,2005-04-07,UG/L,ND,,40.277882751,-122.32137786,DOMESTIC,,,,GAMA,TEH 659,Robinhood Lane,2005,4
10432,TEH 812,0.0,TCE,2005-05-11,UG/L,ND,,40.3172948,-122.20415355700001,DOMESTIC,,,,GAMA,TEH 812,Sturgeon Way,2005,5
10522,TEH 854,0.0,TCE,2005-05-20,UG/L,ND,,40.269478665,-122.20189738100001,DOMESTIC,,,,GAMA,TEH 854,River Heights Drive,2005,5
10554,TEH 807,0.0,TCE,2005-05-11,UG/L,ND,,40.145517665999996,-122.350081266,DOMESTIC,,,,GAMA,TEH 807,Live Oak Road,2005,5
10577,TEH 719,0.0,TCE,2005-04-12,UG/L,ND,,40.286607273,-122.38388539700001,DOMESTIC,,,,GAMA,TEH 719,Quail Ridge Road,2005,4
10604,TEH 686,0.0,TCE,2005-04-21,UG/L,ND,,40.276391915,-122.350923501,DOMESTIC,,,,GAMA,TEH 686,Oakwood Heights Drive,2005,4
10673,TEH 738,0.0,TCE,2005-04-20,UG/L,ND,,40.244765529,-122.20832789100001,DOMESTIC,,,,GAMA,TEH 738,East Wallen Road,2005,4
10738,TEH 760,0.0,TCE,2005-04-28,UG/L,ND,,40.251642087,-122.21047441799999,DOMESTIC,,,,GAMA,TEH 760,Davis Road,2005,4
10913,TEH 763,0.0,TCE,2005-05-05,UG/L,ND,,40.312708415,-122.071218822,DOMESTIC,,,,GAMA,TEH 763,Hwy 36 East,2005,5
10960,TEH 735,0.0,TCE,2005-04-20,UG/L,ND,,40.244427832,-122.208787624,DOMESTIC,,,,GAMA,TEH 735,E. Wallen Road,2005,4
11068,TEH 759,0.0,TCE,2005-05-05,UG/L,ND,,40.254632614,-122.202601415,DOMESTIC,,,,GAMA,TEH 759,Brent Road,2005,5
11282,TEH 649,0.0,TCE,2005-04-05,UG/L,ND,,40.279308599000004,-122.333109832,DOMESTIC,,,,GAMA,TEH 649,Matlock Loop,2005,4
11303,TEH 679,0.0,TCE,2005-04-13,UG/L,ND,,40.273778066,-122.394213385,DOMESTIC,,,,GAMA,TEH 679,South Lake Road,2005,4
11317,TEH 761,0.0,TCE,2005-05-10,UG/L,ND,,40.251150497,-122.21294369799999,DOMESTIC,,,,GAMA,TEH 761,West Wallen Road,2005,5
11375,YUB 235,0.5,TCE,2002-05-20,UG/L,<,,39.040507022,-121.575981311,DOMESTIC,,,,GAMA,YUB 235,Anderson Avenue,2002,5
11398,YUB 204,0.5,TCE,2002-05-08,UG/L,<,,39.047988905,-121.34597261399999,DOMESTIC,,,,GAMA,YUB 204,Camp Far West Road,2002,5
11492,YUB 224,0.5,TCE,2002-05-08,UG/L,<,,39.011402376999996,-121.444288907,DOMESTIC,,,,GAMA,YUB 224,Lewis Road,2002,5
11514,YUB 208,0.5,TCE,2002-05-13,UG/L,<,,39.186667104,-121.589587653,DOMESTIC,,,,GAMA,YUB 208,Saddleback Drive,2002,5
11525,YUB 275,0.5,TCE,2002-05-20,UG/L,<,,39.169670658,-121.60028387,DOMESTIC,,,,GAMA,YUB 275,Laurellen Road,2002,5
11690,YUB 200,0.5,TCE,2002-05-29,UG/L,<,,39.051824574,-121.55988050399999,DOMESTIC,,,,GAMA,YUB 200,Warehouse Road,2002,5
11933,YUB 299,0.5,TCE,2002-05-17,UG/L,<,,39.355634777,-121.276951595,DOMESTIC,,,,GAMA,YUB 299,Marysville Road,2002,5
11989,YUB 211,0.5,TCE,2002-05-28,UG/L,<,,39.530450399,-121.16590200899999,DOMESTIC,,,,GAMA,YUB 211,La Porte Road,2002,5
12059,YUB 247,0.5,TCE,2002-06-03,UG/L,<,,38.900786167,-121.104676724,DOMESTIC,,,,GAMA,YUB 247,Milertown Road,2002,6
12235,YUB 321P,0.5,TCE,2002-01-07,UG/L,<,,38.6817833,-120.7533277,DOMESTIC,,,,GAMA,YUB 321P,Cottonwood Lane,2002,1
12253,YUB 267,0.5,TCE,2002-04-26,UG/L,<,,39.249001342,-121.350013834,DOMESTIC,,,,GAMA,YUB 267,Gary Drive,2002,4
12269,YUB 322P,0.5,TCE,2002-01-08,UG/L,<,,38.79268108,-120.9043513,DOMESTIC,,,,GAMA,YUB 322P,Mountain View,2002,1
12282,YUB 255,0.5,TCE,2002-05-08,UG/L,<,,39.047251855,-121.46878982700001,DOMESTIC,,,,GAMA,YUB 255,Bradshaw Road,2002,5
12294,YUB 281,0.5,TCE,2002-04-26,UG/L,<,,39.310388868000004,-121.343576534,DOMESTIC,,,,GAMA,YUB 281,Michelle Way,2002,4
12449,YUB 272,0.5,TCE,2002-05-08,UG/L,<,,39.082749926,-121.311719313,DOMESTIC,,,,GAMA,YUB 272,Intanko Lane,2002,5
12682,YUB 250,0.5,TCE,2002-05-28,UG/L,<,,39.546347289,-121.13266012,DOMESTIC,,,,GAMA,YUB 250,Barton Hill Road,2002,5
12784,YUB 248,0.5,TCE,2002-06-03,UG/L,<,,38.900786167,-121.104676724,DOMESTIC,,,,GAMA,YUB 248,Milertown Road,2002,6
12865,ED 442,1.0,TCE,2003-04-22,UG/L,<,,38.72937744,-120.7150077,DOMESTIC,,,,GAMA,ED 442,VERDE ROBLES DRIVE,2003,4
12896,ED 438,1.0,TCE,2003-04-10,UG/L,<,,38.7856581,-120.8808754,DOMESTIC,,,,GAMA,ED 438,HIGHWAY 49,2003,4
12905,ED 443,1.0,TCE,2003-04-22,UG/L,<,,38.73395407,-120.7180166,DOMESTIC,,,,GAMA,ED 443,LOS TRAMPAS,2003,4
13055,ED 491,1.0,TCE,2004-04-14,UG/L,<,,38.569490669000004,-120.845684944,DOMESTIC,,,,GAMA,ED 491,HIGHWAY 49,2004,4
13247,ED 325,1.0,TCE,2003-02-11,UG/L,<,,38.72081051,-120.78442959999998,DOMESTIC,,,,GAMA,ED 325,NICKS LANE,2003,2
13320,ED 492,1.0,TCE,2004-04-14,UG/L,<,,38.661932575,-120.83687077399999,DOMESTIC,,,,GAMA,ED 492,UNION MINE ROAD,2004,4
13572,ED 533,1.0,TCE,2004-05-14,UG/L,<,,38.818631851,-121.017904021,DOMESTIC,,,,GAMA,ED 533,VIENNA DRIVE,2004,5
13648,ED 327,1.0,TCE,2003-02-19,UG/L,<,,38.73402255,-120.7334495,DOMESTIC,,,,GAMA,ED 327,LEANING TREE ROAD,2003,2
13801,ED 672,1.0,TCE,2004-06-01,UG/L,<,,38.819143649000004,-121.023139205,DOMESTIC,,,,GAMA,ED 672,HIGH SIERRA ROAD,2004,6
13817,ED 300,1.0,TCE,2003-02-04,UG/L,<,,38.68442242,-120.7537351,DOMESTIC,,,,GAMA,ED 300,HIDDEN HOLLOW DRIVE,2003,2
13858,ED 384,1.0,TCE,2003-03-25,UG/L,<,,38.53305127,-120.950208,DOMESTIC,,,,GAMA,ED 384,WHITE HAWK ROAD,2003,3
13887,ED 432,1.0,TCE,2003-04-01,UG/L,<,,38.71404328,-120.9589963,DOMESTIC,,,,GAMA,ED 432,DUNCAN  HILL ROAD,2003,4
13954,ED 564,1.0,TCE,2004-04-28,UG/L,<,,38.8295867,-121.0110251,DOMESTIC,,,,GAMA,ED 564,PEDRO HILL ROAD,2004,4
13983,ED 607,1.0,TCE,2004-05-06,UG/L,<,,38.788051689,-120.84121589200001,DOMESTIC,,,,GAMA,ED 607,SHEEPHERDER RIDGE ROAD,2004,5
14044,ED 698,1.0,TCE,2004-05-24,UG/L,<,,39.0024122,-120.8717989,DOMESTIC,,,,GAMA,ED 698,Melody Lane,2004,5
14160,ED 559,1.0,TCE,2004-04-20,UG/L,<,,38.592942569,-120.70582530700001,DOMESTIC,,,,GAMA,ED 559,APACHE PASS,2004,4
14328,ED 460,1.0,TCE,2003-05-07,UG/L,<,,38.80752198,-120.9485057,DOMESTIC,,,,GAMA,ED 460,WAGNER MINE ROAD,2003,5
14451,ED 330,1.0,TCE,2003-02-20,UG/L,<,,38.70110192,-120.82692450000002,DOMESTIC,,,,GAMA,ED 330,WEDGE HILL ROAD,2003,2
14506,ED 437,1.0,TCE,2003-04-09,UG/L,<,,38.58732226,-120.95009180000001,DOMESTIC,,,,GAMA,ED 437,SHADOW HAWK DRIVE,2003,4
14532,ED 472,1.0,TCE,2003-05-14,UG/L,<,,38.76842076,-120.9164146,DOMESTIC,,,,GAMA,ED 472,KEN DEREK LANE,2003,5
14579,ED 563,1.0,TCE,2004-04-27,UG/L,<,,38.600062409,-120.718215031,DOMESTIC,,,,GAMA,ED 563,MOUNT AUKUM ROAD,2004,4
14662,ED 476,1.0,TCE,2003-05-15,UG/L,<,,38.77479029,-120.92950549999999,DOMESTIC,,,,GAMA,ED 476,OLD RANCH ROAD,2003,5
14740,ED 590,1.0,TCE,2004-05-07,UG/L,<,,38.548079545,-120.71127604,DOMESTIC,,,,GAMA,ED 590,CEDAR CREEK ROAD,2004,5
14782,ED 648,1.0,TCE,2004-05-18,UG/L,<,,38.76432465,-120.98431427700001,DOMESTIC,,,,GAMA,ED 648,LUNEMAN ROAD (SPRING),2004,5
14831,ED 370,1.0,TCE,2003-03-07,UG/L,<,,38.59833773,-120.95148370000001,DOMESTIC,,,,GAMA,ED 370,SHADOW HAWK DRIVE,2003,3
14934,ED 587,1.0,TCE,2004-04-29,UG/L,<,,38.830816152,-121.020700762,DOMESTIC,,,,GAMA,ED 587,JACKASS MINE ROAD,2004,4
15171,ED 632,1.0,TCE,2004-05-10,UG/L,<,,38.828126700000006,-121.0041269,DOMESTIC,,,,GAMA,ED 632,MEADOW CROFT LANE,2004,5
15193,ED 304,1.0,TCE,2003-02-05,UG/L,<,,38.6721891,-120.7694186,DOMESTIC,,,,GAMA,ED 304,DOWELL LANE,2003,2
15266,ED 512,1.0,TCE,2004-04-20,UG/L,<,,38.638909999999996,-120.81808999999998,DOMESTIC,,,,GAMA,ED 512,LITTLE CANYON ROAD,2004,4
15539,ED 605,1.0,TCE,2004-05-06,UG/L,<,,38.8609795,-120.82102240000002,DOMESTIC,,,,GAMA,ED 605,TRACY LANE,2004,5
15667,ED 541,1.0,TCE,2004-04-27,UG/L,<,,38.612421078000004,-120.71486055,DOMESTIC,,,,GAMA,ED 541,RISHI RIDGE ROAD,2004,4
15682,ED 557,1.0,TCE,2004-04-22,UG/L,<,,38.658568100000004,-120.7452269,DOMESTIC,,,,GAMA,ED 557,HANKS EXCHANGE ROAD,2004,4
15737,ED 693,1.0,TCE,2004-06-17,UG/L,<,,38.799255369,-120.910783083,DOMESTIC,,,,GAMA,ED 693,LOTUS ROAD,2004,6
15970,ED 597,1.0,TCE,2004-05-04,UG/L,<,,38.838653356,-121.025720381,DOMESTIC,,,,GAMA,ED 597,PILOT CREEK LANE,2004,5
16037,ED 311,1.0,TCE,2003-02-06,UG/L,<,,38.6819489,-120.7617119,DOMESTIC,,,,GAMA,ED 311,WESTLEY ROAD,2003,2
16052,ED 497,1.0,TCE,2004-04-14,UG/L,<,,38.613333652,-120.853612253,DOMESTIC,,,,GAMA,ED 497,SODALITE STREET,2004,4
16078,ED 650,1.0,TCE,2004-05-20,UG/L,<,,38.895726622,-120.93183866,DOMESTIC,,,,GAMA,ED 650,COON CREEK ROAD,2004,5
16438,ED 410,1.0,TCE,2003-03-27,UG/L,<,,38.71666908,-120.709296,DOMESTIC,,,,GAMA,ED 410,PIONIEER HILL ROAD,2003,3
16449,ED 660,1.0,TCE,2004-05-24,UG/L,<,,38.72036939,-120.87360133700001,DOMESTIC,,,,GAMA,ED 660,GREENWOOD LANE,2004,5
16461,ED 687,1.0,TCE,2004-06-07,UG/L,<,,38.632416428,-120.711076708,DOMESTIC,,,,GAMA,ED 687,MARY ANN LANE,2004,6
16491,ED 471,1.0,TCE,2003-05-14,UG/L,<,,38.7886129,-120.94966140000001,DOMESTIC,,,,GAMA,ED 471,CROOKED MILE COURT,2003,5
16559,ED 480,1.0,TCE,2003-05-27,UG/L,<,,38.76197554,-120.9340179,DOMESTIC,,,,GAMA,ED 480,RED FOX  ROAD,2003,5
16574,ED 524,1.0,TCE,2004-04-21,UG/L,<,,38.698547600000005,-120.9840761,DOMESTIC,,,,GAMA,ED 524,OLD MEDER ROAD,2004,4
16644,ED 525,1.0,TCE,2004-04-21,UG/L,<,,38.696439239,-120.977877025,DOMESTIC,,,,GAMA,ED 525,LITTLE OAK LANE,2004,4
16695,ED 400,1.0,TCE,2003-03-18,UG/L,<,,38.79674501,-120.90825190000001,DOMESTIC,,,,GAMA,ED 400,MOUNTAIN VIEW ROAD,2003,3
16959,ED 431,1.0,TCE,2003-04-01,UG/L,<,,38.72962332,-120.96385009999999,DOMESTIC,,,,GAMA,ED 431,DEER VALLEY ROAD,2003,4
16984,ED 522,1.0,TCE,2004-04-21,UG/L,<,,38.644378688,-121.048188548,DOMESTIC,,,,GAMA,ED 522,SCREECH OWL CREEK ROAD,2004,4
17016,ED 627,1.0,TCE,2004-05-20,UG/L,<,,38.844892474,-121.025173167,DOMESTIC,,,,GAMA,ED 627,OAK VIEW DRIVE,2004,5
17198,ED 678,1.0,TCE,2004-06-02,UG/L,<,,38.816018096,-120.78823735700001,DOMESTIC,,,,GAMA,ED 678,TWISTING TRAILS,2004,6
17220,SD 949,0.5,TCE,2009-01-20,UG/L,<,0.5,33.221156476,-116.342823389,DOMESTIC,,,,GAMA,SD 949,SD 949,2009,1
17230,SD 948,0.5,TCE,2009-01-20,UG/L,<,0.5,33.226332842,-116.347572454,DOMESTIC,,,,GAMA,SD 948,SD 948,2009,1
17399,TUL1060,0.0,TCE,2006-06-15,UG/L,ND,0.5,36.26822217,-119.1543493,DOMESTIC,,,,GAMA,TUL1060,TUL1060,2006,6
17468,TUL1101,0.0,TCE,2006-06-22,UG/L,ND,0.5,36.03919623,-118.93336346,DOMESTIC,,,,GAMA,TUL1101,TUL1101,2006,6
17708,TUL969,0.0,TCE,2006-05-11,UG/L,ND,0.5,36.45357769,-119.3475065,DOMESTIC,,,,GAMA,TUL969,TUL969,2006,5
17781,TUL1003,0.0,TCE,2006-05-18,UG/L,ND,0.5,36.21392902,-119.25771529999999,DOMESTIC,,,,GAMA,TUL1003,TUL1003,2006,5
17984,TUL959,0.0,TCE,2006-05-09,UG/L,ND,0.5,36.00153529999999,-119.0198798,DOMESTIC,,,,GAMA,TUL959,TUL959,2006,5
17999,TUL905,0.0,TCE,2006-04-18,UG/L,ND,0.5,36.36381359,-119.19018390000002,DOMESTIC,,,,GAMA,TUL905,TUL905,2006,4
18097,TUL1059,0.0,TCE,2006-06-14,UG/L,ND,0.5,36.35667716,-119.06594240000001,DOMESTIC,,,,GAMA,TUL1059,TUL1059,2006,6
18110,TUL972,0.0,TCE,2006-05-11,UG/L,ND,0.5,36.54403269,-119.3121763,DOMESTIC,,,,GAMA,TUL972,TUL972,2006,5
18120,TUL945,0.0,TCE,2006-04-27,UG/L,ND,0.5,36.090512,-119.0167213,DOMESTIC,,,,GAMA,TUL945,TUL945,2006,4
18271,TUL917,0.0,TCE,2006-04-19,UG/L,ND,0.5,36.34821818,-119.131652,DOMESTIC,,,,GAMA,TUL917,TUL917,2006,4
18350,TUL932,0.0,TCE,2006-04-25,UG/L,ND,0.5,36.18155996,-119.08856750000001,DOMESTIC,,,,GAMA,TUL932,TUL932,2006,4
18454,SD 934,0.5,TCE,2008-12-18,UG/L,<,0.5,33.202182850999996,-116.74979476700001,DOMESTIC,,,,GAMA,SD 934,SD 934,2008,12
18518,SD 936,0.5,TCE,2009-01-07,UG/L,<,0.5,32.665019201,-116.262940136,DOMESTIC,,,,GAMA,SD 936,SD 936,2009,1
18617,SD 942,0.5,TCE,2008-12-18,UG/L,<,0.5,33.25927401,-116.801787428,DOMESTIC,,,,GAMA,SD 942,SD 942,2008,12
18831,MON122,0.5,TCE,2011-05-12,UG/L,<,0.5,36.8829104,-121.7157442,DOMESTIC,,,,GAMA,MON122,MON122,2011,5
18856,MON152,0.5,TCE,2011-06-07,UG/L,<,0.5,36.45519303,-121.7130972,DOMESTIC,,,,GAMA,MON152,MON152,2011,6
19136,MON123,0.5,TCE,2011-05-12,UG/L,<,0.5,36.88421094,-121.72594720000001,DOMESTIC,,,,GAMA,MON123,MON123,2011,5
19196,MON130,0.5,TCE,2011-05-18,UG/L,<,0.5,36.77430038,-121.6622311,DOMESTIC,,,,GAMA,MON130,MON130,2011,5
19385,MON172,0.5,TCE,2011-06-21,UG/L,<,0.5,35.96618861,-121.08035009999999,DOMESTIC,,,,GAMA,MON172,MON172,2011,6
19399,MON132,0.5,TCE,2011-05-18,UG/L,<,0.5,36.82327165,-121.66984280000001,DOMESTIC,,,,GAMA,MON132,MON132,2011,5
19499,MON120,0.5,TCE,2011-05-11,UG/L,<,0.5,36.82754517,-121.65514809999999,DOMESTIC,,,,GAMA,MON120,MON120,2011,5
19596,SD 913,0.5,TCE,2008-12-04,UG/L,<,0.5,32.725178097,-116.777898112,DOMESTIC,,,,GAMA,SD 913,SD 913,2008,12
19642,SD 845,0.5,TCE,2008-05-29,UG/L,<,0.5,32.7959385,-116.84678819999999,DOMESTIC,,,,GAMA,SD 845,SD 845,2008,5
19972,SD 889,0.5,TCE,2008-06-18,UG/L,<,0.5,32.66084271,-116.29659290000001,DOMESTIC,,,,GAMA,SD 889,SD 889,2008,6
20003,SD 929,0.5,TCE,2008-12-18,UG/L,<,0.5,33.210882348,-116.69878675700001,DOMESTIC,,,,GAMA,SD 929,SD 929,2008,12
20012,SD 823,0.5,TCE,2008-05-14,UG/L,<,0.5,33.00898541,-116.9001892,DOMESTIC,,,,GAMA,SD 823,SD 823,2008,5
20151,SD 912,0.5,TCE,2008-12-04,UG/L,<,0.5,32.618654735,-116.76130200899999,DOMESTIC,,,,GAMA,SD 912,SD 912,2008,12
20252,TUL938,0.0,TCE,2006-04-26,UG/L,ND,0.5,36.22623617,-119.3770957,DOMESTIC,,,,GAMA,TUL938,TUL938,2006,4
20381,SD 888,0.5,TCE,2008-06-18,UG/L,<,0.5,32.6136766,-116.2123244,DOMESTIC,,,,GAMA,SD 888,SD 888,2008,6
20429,SD 880,0.5,TCE,2008-06-17,UG/L,<,0.5,32.865395,-116.636921,DOMESTIC,,,,GAMA,SD 880,SD 880,2008,6
20445,SD 921,0.5,TCE,2008-12-10,UG/L,<,0.5,33.077730241,-117.164022498,DOMESTIC,,,,GAMA,SD 921,SD 921,2008,12
20569,TUL1065,0.0,TCE,2006-06-13,UG/L,ND,0.5,36.15372079,-119.4924939,DOMESTIC,,,,GAMA,TUL1065,TUL1065,2006,6
20605,TUL968,0.0,TCE,2006-05-11,UG/L,ND,0.5,36.60155974,-119.2456253,DOMESTIC,,,,GAMA,TUL968,TUL968,2006,5
20674,SD 877,0.5,TCE,2008-06-17,UG/L,<,0.5,32.84765759,-116.75820630000001,DOMESTIC,,,,GAMA,SD 877,SD 877,2008,6
20682,SD 864,0.5,TCE,2008-06-10,UG/L,<,0.5,32.91956469,-116.88659950000002,DOMESTIC,,,,GAMA,SD 864,SD 864,2008,6
20908,TUL1019,0.0,TCE,2006-05-23,UG/L,ND,0.5,36.58817325,-119.10250009999999,DOMESTIC,,,,GAMA,TUL1019,TUL1019,2006,5
20996,SD 919,0.5,TCE,2008-12-09,UG/L,<,0.5,33.087617494,-117.135862913,DOMESTIC,,,,GAMA,SD 919,SD 919,2008,12
21124,TUL1066,0.0,TCE,2006-06-13,UG/L,ND,0.5,36.20315614,-119.4731074,DOMESTIC,,,,GAMA,TUL1066,TUL1066,2006,6
21145,SD 863,0.5,TCE,2008-06-10,UG/L,<,0.5,32.90462654,-116.8780385,DOMESTIC,,,,GAMA,SD 863,SD 863,2008,6
21191,TUL920,0.0,TCE,2006-04-20,UG/L,ND,0.5,36.39056213,-118.8689027,DOMESTIC,,,,GAMA,TUL920,TUL920,2006,4
21240,TUL962,0.0,TCE,2006-05-10,UG/L,ND,0.5,36.58678743,-119.1214717,DOMESTIC,,,,GAMA,TUL962,TUL962,2006,5
21429,TUL947,0.0,TCE,2006-04-25,UG/L,ND,0.5,35.920821966912996,-119.267924484977,DOMESTIC,,,,GAMA,TUL947,TUL947,2006,4
21513,SD 827,0.5,TCE,2008-05-15,UG/L,<,0.5,32.99738174,-116.89597040000001,DOMESTIC,,,,GAMA,SD 827,SD 827,2008,5
21788,TUL1017,0.0,TCE,2006-05-24,UG/L,ND,0.5,36.15423166,-119.3573435,DOMESTIC,,,,GAMA,TUL1017,TUL1017,2006,5
21808,TUL1020,0.0,TCE,2006-05-25,UG/L,ND,0.5,36.36204439,-119.34936189999999,DOMESTIC,,,,GAMA,TUL1020,TUL1020,2006,5
21815,TEH 838,0.0,TCE,2005-05-19,UG/L,ND,,40.04956618,-122.091022965,DOMESTIC,,,,GAMA,TEH 838,Shasta Blvd.,2005,5
21952,TEH 858,0.0,TCE,2005-05-26,UG/L,ND,,40.1157594,-122.09362150000001,DOMESTIC,,,,GAMA,TEH 858,Day Avenue,2005,5
21975,TEH 891,0.0,TCE,2005-06-02,UG/L,ND,,40.038255799999995,-122.1058561,DOMESTIC,,,,GAMA,TEH 891,Logans Lane,2005,6
22194,TEH 844,0.0,TCE,2005-05-19,UG/L,ND,,40.037756402,-122.096930842,DOMESTIC,,,,GAMA,TEH 844,Sherwood Blvd.,2005,5
22265,TEH 772,0.0,TCE,2005-06-01,UG/L,ND,,40.0461016,-122.1125366,DOMESTIC,,,,GAMA,TEH 772,Taft Street,2005,6
22384,TEH 876,0.0,TCE,2005-06-01,UG/L,ND,,40.0352875,-122.10571709999999,DOMESTIC,,,,GAMA,TEH 876,Marek Road,2005,6
22717,TEH 770,0.0,TCE,2005-04-28,UG/L,ND,,40.251621527,-122.209760476,DOMESTIC,,,,GAMA,TEH 770,Davis Road,2005,4
22770,TEH 668,0.0,TCE,2005-04-06,UG/L,ND,,40.341711048,-122.352809228,DOMESTIC,,,,GAMA,TEH 668,Turnell Road,2005,4
22834,TEH 664,0.0,TCE,2005-04-06,UG/L,ND,,40.296496575999996,-122.26528926200001,DOMESTIC,,,,GAMA,TEH 664,Scenic Drive,2005,4
22872,TEH 791,0.0,TCE,2005-05-10,UG/L,ND,,40.24401858,-122.21575090700001,DOMESTIC,,,,GAMA,TEH 791,South Wallen Road,2005,5
22890,TEH 805,0.0,TCE,2005-05-10,UG/L,ND,,40.265629293,-122.25079583899999,DOMESTIC,,,,GAMA,TEH 805,Paul Drive,2005,5
22954,TEH 670,0.0,TCE,2005-04-12,UG/L,ND,,40.28881672,-122.315780164,DOMESTIC,,,,GAMA,TEH 670,Bodarich Way,2005,4
23170,TEH 742,0.0,TCE,2005-04-27,UG/L,ND,,40.250109535,-122.22167419200001,DOMESTIC,,,,GAMA,TEH 742,Parkway Drive,2005,4
23256,TEH 799,0.0,TCE,2005-05-03,UG/L,ND,,40.255668493,-122.212732726,DOMESTIC,,,,GAMA,TEH 799,East Wallen Road,2005,5
23270,TEH 646,0.0,TCE,2005-04-05,UG/L,ND,,40.292428347,-122.43390195100001,DOMESTIC,,,,GAMA,TEH 646,Blue Oak Road,2005,4
23452,TEH 731,0.0,TCE,2005-04-19,UG/L,ND,,40.299007892,-122.368201482,DOMESTIC,,,,GAMA,TEH 731,Big Bear Lane,2005,4
23508,TEH 808,0.0,TCE,2005-05-11,UG/L,ND,,40.240431285,-122.27305894700001,DOMESTIC,,,,GAMA,TEH 808,Willowlane Court,2005,5
23559,TEH 820,0.0,TCE,2005-05-11,UG/L,ND,,40.266031235,-122.262072503,DOMESTIC,,,,GAMA,TEH 820,Enz Court,2005,5
23691,TEH 667,0.0,TCE,2005-04-07,UG/L,ND,,40.301048912,-122.363587632,DOMESTIC,,,,GAMA,TEH 667,Big Bear Lane,2005,4
23767,TEH 837,0.0,TCE,2005-05-19,UG/L,ND,,40.053786642,-122.06137277,DOMESTIC,,,,GAMA,TEH 837,Wilson Street,2005,5
23971,TEH 829,0.0,TCE,2005-06-01,UG/L,ND,,40.175174,-122.3432655,DOMESTIC,,,,GAMA,TEH 829,Roadrunner Loop,2005,6
24187,TEH 802,0.0,TCE,2005-05-20,UG/L,ND,,40.270462693,-122.201655315,DOMESTIC,,,,GAMA,TEH 802,River Heights Drive,2005,5
24209,TEH 660,0.0,TCE,2005-04-07,UG/L,ND,,40.279363683,-122.340059995,DOMESTIC,,,,GAMA,TEH 660,Bass Pass Road,2005,4
24292,TEH 652,0.0,TCE,2005-04-05,UG/L,ND,,40.286953639000004,-122.33532322200001,DOMESTIC,,,,GAMA,TEH 652,'C' Road,2005,4
24385,YUB 276,0.5,TCE,2002-05-08,UG/L,<,,39.010346658,-121.444236069,DOMESTIC,,,,GAMA,YUB 276,Lewis Road,2002,5
24428,YUB 311,0.5,TCE,2002-05-13,UG/L,<,,39.04790870000001,-121.57835823200001,DOMESTIC,,,,GAMA,YUB 311,Broadway Road,2002,5
24455,YUB 230,0.5,TCE,2002-05-20,UG/L,<,,39.190592001999995,-121.51994354,DOMESTIC,,,,GAMA,YUB 230,Walnut Avenue,2002,5
24522,YUB 209,0.5,TCE,2002-05-13,UG/L,<,,39.305029292,-121.608165329,DOMESTIC,,,,GAMA,YUB 209,Thome Road,2002,5
24532,YUB 225,0.5,TCE,2002-05-08,UG/L,<,,39.0486525,-121.34685082,DOMESTIC,,,,GAMA,YUB 225,Camp Far West Road,2002,5
24547,YUB 221,0.5,TCE,2002-05-09,UG/L,<,,39.115515994,-121.631461185,DOMESTIC,,,,GAMA,YUB 221,Hillcrest Avenue,2002,5
24584,YUB 314,0.5,TCE,2002-05-23,UG/L,<,,39.050337932,-121.568124009,DOMESTIC,,,,GAMA,YUB 314,David Lane,2002,5
24630,YUB 226,0.5,TCE,2002-05-13,UG/L,<,,39.048581719,-121.56313704200001,DOMESTIC,,,,GAMA,YUB 226,Simeroth Lane,2002,5
24718,YUB 210,0.5,TCE,2002-05-03,UG/L,<,,39.269229485,-121.35805779799999,DOMESTIC,,,,GAMA,YUB 210,Township Road,2002,5
24978,YUB 213,0.5,TCE,2002-04-30,UG/L,<,,39.374886409,-121.25583172600001,DOMESTIC,,,,GAMA,YUB 213,Quintera Way,2002,4
24989,YUB 237,0.5,TCE,2002-05-29,UG/L,<,,39.390335688,-121.10927709799999,DOMESTIC,,,,GAMA,YUB 237,Moonshine Road,2002,5
25041,YUB 264,0.5,TCE,2002-05-14,UG/L,<,,39.307095810999996,-121.38204481,DOMESTIC,,,,GAMA,YUB 264,Dawn Drive,2002,5
25314,YUB 242,0.5,TCE,2002-05-29,UG/L,<,,39.099476173,-121.550449611,DOMESTIC,,,,GAMA,YUB 242,Olivehurst Avenue,2002,5
25372,YUB 290,0.5,TCE,2002-05-03,UG/L,<,,39.235040415,-121.35474693100001,DOMESTIC,,,,GAMA,YUB 290,Potts Trail,2002,5
25385,YUB 239,0.5,TCE,2002-05-29,UG/L,<,,39.391710774,-121.10845610700001,DOMESTIC,,,,GAMA,YUB 239,Moonshine Road,2002,5
25440,YUB 323P,0.5,TCE,2002-01-08,UG/L,<,,38.61127787,-120.97734834,DOMESTIC,,,,GAMA,YUB 323P,Gild Creek Road,2002,1
25450,YUB 233,0.5,TCE,2002-04-26,UG/L,<,,39.297011383000005,-121.352091605,DOMESTIC,,,,GAMA,YUB 233,Arechar Court,2002,4
25479,YUB 215,0.5,TCE,2002-05-09,UG/L,<,,39.33611758,-121.268717401,DOMESTIC,,,,GAMA,YUB 215,Collin House Road,2002,5
25549,YUB 223,0.5,TCE,2002-05-08,UG/L,<,,39.084030178,-121.31319867200001,DOMESTIC,,,,GAMA,YUB 223,Intanko Lane,2002,5
25699,ED 440,1.0,TCE,2003-04-10,UG/L,<,,38.73119929,-120.858097,DOMESTIC,,,,GAMA,ED 440,RISING HILL ROAD,2003,4
25750,ED 452,1.0,TCE,2003-04-24,UG/L,<,,38.681206200000005,-120.76149950000001,DOMESTIC,,,,GAMA,ED 452,WESTLEY ROAD,2003,4
25806,ED 447,1.0,TCE,2003-04-23,UG/L,<,,38.79051191,-120.88060390000001,DOMESTIC,,,,GAMA,ED 447,JOHNSON RANCH ROAD,2003,4
25857,ED 346,1.0,TCE,2003-02-27,UG/L,<,,38.74440975,-120.8665139,DOMESTIC,,,,GAMA,ED 346,PASO DIABLO ROAD,2003,2
25949,ED 570,1.0,TCE,2004-04-28,UG/L,<,,38.830461635,-121.00105790799999,DOMESTIC,,,,GAMA,ED 570,PEDRO HILL ROAD,2004,4
25969,ED 411,1.0,TCE,2003-03-20,UG/L,<,,38.71802687,-120.96247530000001,DOMESTIC,,,,GAMA,ED 411,HELENA ROAD,2003,3
26062,ED 309,1.0,TCE,2003-02-06,UG/L,<,,38.68964777,-120.7589957,DOMESTIC,,,,GAMA,ED 309,CEDAR RAVINE ROAD,2003,2
26093,ED 335,1.0,TCE,2003-02-21,UG/L,<,,38.68955994,-120.7532419,DOMESTIC,,,,GAMA,ED 335,CEDAR RAVINE ROAD,2003,2
26106,ED 403,1.0,TCE,2003-03-18,UG/L,<,,38.81236215,-120.901126,DOMESTIC,,,,GAMA,ED 403,LITTLE COURT,2003,3
26184,ED 582,1.0,TCE,2004-04-26,UG/L,<,,38.801495777,-120.806885074,DOMESTIC,,,,GAMA,ED 582,SHOO FLY ROAD,2004,4
26355,ED 523,1.0,TCE,2004-04-20,UG/L,<,,38.651078645,-120.76441431299999,DOMESTIC,,,,GAMA,ED 523,NASHVILLE ROAD,2004,4
26450,ED 663,1.0,TCE,2004-05-25,UG/L,<,,38.890492171999995,-120.92545918799999,DOMESTIC,,,,GAMA,ED 663,SCARLET OAK DRIVE,2004,5
26494,ED 381,1.0,TCE,2003-03-25,UG/L,<,,38.57720126,-120.9785648,DOMESTIC,,,,GAMA,ED 381,BRYANT ROAD,2003,3
26514,ED 428,1.0,TCE,2003-04-08,UG/L,<,,38.72132842,-120.8742159,DOMESTIC,,,,GAMA,ED 428,GREENWOOD LANE,2003,4
26524,ED 457,1.0,TCE,2003-05-07,UG/L,<,,38.8099221,-120.91496880000001,DOMESTIC,,,,GAMA,ED 457,LODESTAR LANE,2003,5
26540,ED 479,1.0,TCE,2003-05-27,UG/L,<,,38.79242205,-120.9415567,DOMESTIC,,,,GAMA,ED 479,SHORE LINE DRIVE,2003,5
26609,ED 617,1.0,TCE,2004-05-14,UG/L,<,,38.81967588,-121.01790003200001,DOMESTIC,,,,GAMA,ED 617,VIENNA DRIVE,2004,5
26775,ED 518,1.0,TCE,2004-04-26,UG/L,<,,38.80221239,-120.93608615,DOMESTIC,,,,GAMA,ED 518,GODS WAY,2004,4
26806,ED 543,1.0,TCE,2004-04-15,UG/L,<,,38.817183162,-121.024740505,DOMESTIC,,,,GAMA,ED 543,PILOT VIEW DRIVE,2004,4
26834,ED 589,1.0,TCE,2004-05-07,UG/L,<,,38.548386703,-120.71896462,DOMESTIC,,,,GAMA,ED 589,CEDAR CREEK ROAD,2004,5
26928,ED 324,1.0,TCE,2003-02-14,UG/L,<,,38.67736754,-120.72091599999999,DOMESTIC,,,,GAMA,ED 324,ROBLEDO DRIVE,2003,2
27014,ED 550,1.0,TCE,2004-04-29,UG/L,<,,38.829314251,-121.03154754299999,DOMESTIC,,,,GAMA,ED 550,PILOT VIEW DRIVE,2004,4
27102,ED 676,1.0,TCE,2004-06-03,UG/L,<,,38.583694029,-120.926623375,DOMESTIC,,,,GAMA,ED 676,BONNETTI,2004,6
27269,ED 624,1.0,TCE,2004-05-10,UG/L,<,,38.830069181999995,-121.000508286,DOMESTIC,,,,GAMA,ED 624,PEDRO HILL ROAD,2004,5
27313,ED 349,1.0,TCE,2003-02-27,UG/L,<,,38.71516651,-120.8748388,DOMESTIC,,,,GAMA,ED 349,INDIAN CREEK ROAD,2003,2
27340,ED 404,1.0,TCE,2003-03-18,UG/L,<,,38.74532725,-120.85285559999998,DOMESTIC,,,,GAMA,ED 404,BEALES ROAD,2003,3
27535,ED 382,1.0,TCE,2003-03-25,UG/L,<,,38.60503668,-121.0047261,DOMESTIC,,,,GAMA,ED 382,VENTURE VALLEY ROAD,2003,3
27562,ED 501,1.0,TCE,2004-04-14,UG/L,<,,38.8699119,-120.94174129999999,DOMESTIC,,,,GAMA,ED 501,CHERRY ACRES,2004,4
27587,ED 477,1.0,TCE,2003-05-15,UG/L,<,,38.80960349,-120.9197598,DOMESTIC,,,,GAMA,ED 477,BARKING DOG ROAD,2003,5
27781,ED 406,1.0,TCE,2003-03-20,UG/L,<,,38.78704697,-120.9167014,DOMESTIC,,,,GAMA,ED 406,LOTUS ROAD,2003,3
27903,ED 634,1.0,TCE,2004-05-12,UG/L,<,,38.917043737,-120.888497732,DOMESTIC,,,,GAMA,ED 634,FARAWAY ROAD,2004,5
27917,ED 654,1.0,TCE,2004-06-02,UG/L,<,,38.816018096,-120.78823735700001,DOMESTIC,,,,GAMA,ED 654,TWISTING TRAILS,2004,6
27947,ED 305,1.0,TCE,2003-02-05,UG/L,<,,38.6243995,-120.7836185,DOMESTIC,,,,GAMA,ED 305,BIG OAK ROAD,2003,2
28195,ED 375,1.0,TCE,2003-03-11,UG/L,<,,38.59395637,-120.95004240000002,DOMESTIC,,,,GAMA,ED 375,SHADOW HAWK DRIVE,2003,3
28373,ED 502,1.0,TCE,2004-04-14,UG/L,<,,38.869171892,-120.991641156,DOMESTIC,,,,GAMA,ED 502,CHERRY ACRES CIRCLE,2004,4
28441,ED 652,1.0,TCE,2004-05-27,UG/L,<,,38.684171898,-120.932893581,DOMESTIC,,,,GAMA,ED 652,GREENBRIAR COURT,2004,5
28478,ED 331,1.0,TCE,2003-02-20,UG/L,<,,38.70381994,-120.7248476,DOMESTIC,,,,GAMA,ED 331,SERENITY DRIVE,2003,2
28598,ED 609,1.0,TCE,2004-05-06,UG/L,<,,38.845712886,-121.032151622,DOMESTIC,,,,GAMA,ED 609,ORCHARD COURT,2004,5
28628,ED 677,1.0,TCE,2004-06-12,UG/L,<,,38.617644782,-120.92345879700001,DOMESTIC,,,,GAMA,ED 677,HIDDEN CIRCLE,2004,6
28766,ED 352,1.0,TCE,2003-02-27,UG/L,<,,38.74754936,-120.8621136,DOMESTIC,,,,GAMA,ED 352,BEALES ROAD,2003,2
28870,ED 612,1.0,TCE,2004-05-06,UG/L,<,,38.841105651999996,-120.813147409,DOMESTIC,,,,GAMA,ED 612,PORTER RANCH COURT,2004,5
28893,ED 667,1.0,TCE,2004-05-26,UG/L,<,,38.80276625,-120.91359264299999,DOMESTIC,,,,GAMA,ED 667,AMOLOC LANE,2004,5
28919,ED 353,1.0,TCE,2003-03-04,UG/L,<,,38.69785389,-120.7206119,DOMESTIC,,,,GAMA,ED 353,CHAPPARRAL,2003,3
28987,ED 528,1.0,TCE,2004-04-23,UG/L,<,,38.718869626,-120.700328897,DOMESTIC,,,,GAMA,ED 528,WEBER ROAD,2004,4
29093,ED 675,1.0,TCE,2004-06-03,UG/L,<,,38.657802208,-120.74538592200001,DOMESTIC,,,,GAMA,ED 675,HANKS EXCHANGE ROAD,2004,6
29180,ED 626,1.0,TCE,2004-05-12,UG/L,<,,38.697793741999995,-120.960587911,DOMESTIC,,,,GAMA,ED 626,SIERRA VISTA ROAD,2004,5
29259,ED 312,1.0,TCE,2003-02-25,UG/L,<,,38.75655825,-120.8510288,DOMESTIC,,,,GAMA,ED 312,WALLACE ROAD,2003,2
29414,ED 302,1.0,TCE,2003-02-04,UG/L,<,,38.67487428,-120.7700615,DOMESTIC,,,,GAMA,ED 302,OAK HILL ROAD,2003,2
29595,ED 562,1.0,TCE,2004-04-29,UG/L,<,,38.816414164,-121.023350531,DOMESTIC,,,,GAMA,ED 562,PILOT VIEW DRIVE,2004,4
29615,ED 658,1.0,TCE,2004-05-24,UG/L,<,,38.690082095,-120.658331801,DOMESTIC,,,,GAMA,ED 658,ALAMEDA ROAD,2004,5
29656,ED 378,1.0,TCE,2003-03-17,UG/L,<,,38.58834222,-120.98806770000002,DOMESTIC,,,,GAMA,ED 378,BRYANT ROAD,2003,3
29712,ED 610,1.0,TCE,2004-05-06,UG/L,<,,38.837590000000006,-121.0256962,DOMESTIC,,,,GAMA,ED 610,PILOT CREEK LANE,2004,5
29758,ED 426,1.0,TCE,2003-04-02,UG/L,<,,38.7240635,-120.84998200000001,DOMESTIC,,,,GAMA,ED 426,JERICHO ROAD,2003,4
29800,ED 638,1.0,TCE,2004-05-19,UG/L,<,,38.897198286,-120.913042248,DOMESTIC,,,,GAMA,ED 638,MAIN STREET,2004,5
29856,ED 583,1.0,TCE,2004-04-26,UG/L,<,,38.676779451,-120.84442393299999,DOMESTIC,,,,GAMA,ED 583,UNION MINE ROAD,2004,4
30349,TUL1076,0.0,TCE,2006-06-15,UG/L,ND,0.5,36.29539232,-119.17432520000001,DOMESTIC,,,,GAMA,TUL1076,TUL1076,2006,6
30451,TUL1006,0.0,TCE,2006-06-08,UG/L,ND,0.5,36.02267538,-119.03561909999999,DOMESTIC,,,,GAMA,TUL1006,TUL1006,2006,6
30524,TUL934,0.0,TCE,2006-04-25,UG/L,ND,0.5,36.18169148,-119.16238999999999,DOMESTIC,,,,GAMA,TUL934,TUL934,2006,4
30682,TUL979,0.0,TCE,2006-06-06,UG/L,ND,0.5,36.04210678,-118.93685430000001,DOMESTIC,,,,GAMA,TUL979,TUL979,2006,6
30775,TUL1111,0.0,TCE,2006-06-22,UG/L,ND,0.5,36.564598971,-119.269493289,DOMESTIC,,,,GAMA,TUL1111,TUL1111,2006,6
30897,TUL929,0.0,TCE,2006-04-20,UG/L,ND,0.5,36.23426217,-119.234302,DOMESTIC,,,,GAMA,TUL929,TUL929,2006,4
31046,TUL1107,0.0,TCE,2006-06-22,UG/L,ND,0.5,36.039944504,-118.949376446,DOMESTIC,,,,GAMA,TUL1107,TUL1107,2006,6
31056,TUL903,0.0,TCE,2006-04-18,UG/L,ND,0.5,36.32848252,-119.1879456,DOMESTIC,,,,GAMA,TUL903,TUL903,2006,4
31167,TUL944,0.0,TCE,2006-04-27,UG/L,ND,0.5,36.08776653,-119.03062620000001,DOMESTIC,,,,GAMA,TUL944,TUL944,2006,4
31307,SD 874,0.5,TCE,2008-06-12,UG/L,<,0.5,32.83280397,-116.69377379999999,DOMESTIC,,,,GAMA,SD 874,SD 874,2008,6
31409,SD 867,0.5,TCE,2008-06-11,UG/L,<,0.5,32.79467448,-116.8410144,DOMESTIC,,,,GAMA,SD 867,SD 867,2008,6
31434,MON149,0.5,TCE,2011-05-18,UG/L,<,0.5,36.85387348,-121.65014129999999,DOMESTIC,,,,GAMA,MON149,MON149,2011,5
31587,MON164,0.5,TCE,2011-06-16,UG/L,<,0.5,36.28274401,-121.4587713,DOMESTIC,,,,GAMA,MON164,MON164,2011,6
31597,TUL1090,0.0,TCE,2006-06-21,UG/L,ND,0.5,36.330415021,-119.042982146,DOMESTIC,,,,GAMA,TUL1090,TUL1090,2006,6
31626,SD 849,0.5,TCE,2008-05-29,UG/L,<,0.5,32.78970198,-116.8485031,DOMESTIC,,,,GAMA,SD 849,SD 849,2008,5
31658,MON150,0.5,TCE,2011-06-07,UG/L,<,0.5,36.48559369,-121.7370555,DOMESTIC,,,,GAMA,MON150,MON150,2011,6
31670,MON173,0.5,TCE,2011-06-22,UG/L,<,0.5,35.83063907,-121.1271976,DOMESTIC,,,,GAMA,MON173,MON173,2011,6
31731,MON184,0.5,TCE,2011-06-27,UG/L,<,0.5,36.83283549,-121.7289646,DOMESTIC,,,,GAMA,MON184,MON184,2011,6
31835,MON109,0.5,TCE,2011-05-04,UG/L,<,0.5,36.81445029,-121.64991869999999,DOMESTIC,,,,GAMA,MON109,MON109,2011,5
31968,TUL1024,0.0,TCE,2006-05-25,UG/L,ND,0.5,36.04959513,-118.8524888,DOMESTIC,,,,GAMA,TUL1024,TUL1024,2006,5
32067,MON121,0.5,TCE,2011-05-11,UG/L,<,0.5,36.82758288,-121.64459009999999,DOMESTIC,,,,GAMA,MON121,MON121,2011,5
32199,MON138,0.5,TCE,2011-05-18,UG/L,<,0.5,36.8535434,-121.64974620000001,DOMESTIC,,,,GAMA,MON138,MON138,2011,5
32226,MON114,0.5,TCE,2011-05-05,UG/L,<,0.5,36.79628293,-121.61914669999999,DOMESTIC,,,,GAMA,MON114,MON114,2011,5
32315,SD 828,0.5,TCE,2008-05-21,UG/L,<,0.5,33.06542141,-116.93710359999999,DOMESTIC,,,,GAMA,SD 828,SD 828,2008,5
32398,MON134,0.5,TCE,2011-05-19,UG/L,<,0.5,36.83957295,-121.70084009999998,DOMESTIC,,,,GAMA,MON134,MON134,2011,5
32437,SD 814,0.5,TCE,2008-05-07,UG/L,<,0.5,33.03762778,-116.84662309999999,DOMESTIC,,,,GAMA,SD 814,SD 814,2008,5
32722,SD 818,0.5,TCE,2008-05-08,UG/L,<,0.5,33.05430832,-116.88308970000001,DOMESTIC,,,,GAMA,SD 818,SD 818,2008,5
33054,TUL1009,0.0,TCE,2006-06-07,UG/L,ND,0.5,36.13302253,-118.8644256,DOMESTIC,,,,GAMA,TUL1009,TUL1009,2006,6
33532,TUL1071,0.0,TCE,2006-06-13,UG/L,ND,0.5,36.2013942,-119.4384362,DOMESTIC,,,,GAMA,TUL1071,TUL1071,2006,6
33729,TUL1054,0.0,TCE,2006-06-13,UG/L,ND,0.5,35.95046368,-119.33426909999999,DOMESTIC,,,,GAMA,TUL1054,TUL1054,2006,6
34060,SD 891,0.5,TCE,2008-06-19,UG/L,<,0.5,32.70428713,-116.2936166,DOMESTIC,,,,GAMA,SD 891,SD 891,2008,6
34175,TUL987,0.0,TCE,2006-05-18,UG/L,ND,0.5,35.82800111,-119.3113979,DOMESTIC,,,,GAMA,TUL987,TUL987,2006,5
34184,SD 869,0.5,TCE,2008-06-11,UG/L,<,0.5,32.8584105,-116.8699477,DOMESTIC,,,,GAMA,SD 869,SD 869,2008,6
34244,SD 856,0.5,TCE,2008-06-04,UG/L,<,0.5,33.36396527,-117.2260188,DOMESTIC,,,,GAMA,SD 856,SD 856,2008,6
34334,SD 908,0.5,TCE,2008-12-03,UG/L,<,0.5,32.727164844,-116.824200728,DOMESTIC,,,,GAMA,SD 908,SD 908,2008,12
34485,SD 873,0.5,TCE,2008-06-12,UG/L,<,0.5,32.79583017,-116.8223953,DOMESTIC,,,,GAMA,SD 873,SD 873,2008,6
35128,TEH 775,0.0,TCE,2005-04-26,UG/L,ND,,40.043691511,-122.10307452299999,DOMESTIC,,,,GAMA,TEH 775,Butler Street,2005,4
35214,TEH 853,0.0,TCE,2005-05-20,UG/L,ND,,40.033288564,-122.097156846,DOMESTIC,,,,GAMA,TEH 853,Sherwood Blvd.,2005,5
35269,TEH 892,0.0,TCE,2005-06-02,UG/L,ND,,40.0459238,-122.10014450000001,DOMESTIC,,,,GAMA,TEH 892,Hwy 99 East,2005,6
35280,TEH 814,0.0,TCE,2005-05-19,UG/L,ND,,40.031971137,-122.096136523,DOMESTIC,,,,GAMA,TEH 814,Sherwood Blvd.,2005,5
35317,TEH 881,0.0,TCE,2005-05-25,UG/L,ND,,40.0364759,-122.1069113,DOMESTIC,,,,GAMA,TEH 881,Marek Road,2005,5
35395,TEH 815,0.0,TCE,2005-05-19,UG/L,ND,,40.028379255,-122.09739125799999,DOMESTIC,,,,GAMA,TEH 815,Sherwood Blvd.,2005,5
35414,TEH 877,0.0,TCE,2005-05-25,UG/L,ND,,40.018096,-122.09077959999999,DOMESTIC,,,,GAMA,TEH 877,Lincoln Street,2005,5
35465,TEH 863,0.0,TCE,2005-05-26,UG/L,ND,,40.003736100000005,-122.1052761,DOMESTIC,,,,GAMA,TEH 863,Logans Lane,2005,5
35539,TEH 817,0.0,TCE,2005-05-18,UG/L,ND,,40.033559458,-122.104041585,DOMESTIC,,,,GAMA,TEH 817,Reeves Road,2005,5
35646,TEH 895,0.0,TCE,2005-06-01,UG/L,ND,,40.2314985,-122.3522665,DOMESTIC,,,,GAMA,TEH 895,Frontier Drive,2005,6
35813,TEH 732,0.0,TCE,2005-04-27,UG/L,ND,,40.240583444,-122.206665399,DOMESTIC,,,,GAMA,TEH 732,China Rapids Drive,2005,4
35926,TEH 695,0.0,TCE,2005-04-12,UG/L,ND,,40.275709644,-122.350362859,DOMESTIC,,,,GAMA,TEH 695,Zephyr Crest Road,2005,4
35950,TEH 798,0.0,TCE,2005-05-03,UG/L,ND,,40.241190700000004,-122.2075605,DOMESTIC,,,,GAMA,TEH 798,China Rapids Drive,2005,5
36036,TEH 703,0.0,TCE,2005-04-07,UG/L,ND,,40.300555869,-122.41206027,DOMESTIC,,,,GAMA,TEH 703,Carolyn Road,2005,4
36050,TEH 723,0.0,TCE,2005-04-26,UG/L,ND,,40.279696091999995,-122.343348731,DOMESTIC,,,,GAMA,TEH 723,Bass Pass Road,2005,4
36086,TEH 764,0.0,TCE,2005-04-28,UG/L,ND,,40.248749289,-122.222646495,DOMESTIC,,,,GAMA,TEH 764,Sunburst Lane,2005,4
36179,TEH 734,0.0,TCE,2005-04-21,UG/L,ND,,40.282034081999996,-122.320928414,DOMESTIC,,,,GAMA,TEH 734,Hummingbird Lane,2005,4
36201,TEH 648,0.0,TCE,2005-04-05,UG/L,ND,,40.292365841999995,-122.435538871,DOMESTIC,,,,GAMA,TEH 648,Blue Oak Road,2005,4
36326,TEH 691,0.0,TCE,2005-04-19,UG/L,ND,,40.254880204,-122.214035054,DOMESTIC,,,,GAMA,TEH 691,W. Wallen Road,2005,4
36370,TEH 671,0.0,TCE,2005-04-13,UG/L,ND,,40.295089712,-122.269759455,DOMESTIC,,,,GAMA,TEH 671,Oxford Road,2005,4
36493,TEH 749,0.0,TCE,2005-05-03,UG/L,ND,,40.241406851,-122.20643212600001,DOMESTIC,,,,GAMA,TEH 749,China Rapids Drive,2005,5
36516,TEH 720,0.0,TCE,2005-04-12,UG/L,ND,,40.298259913,-122.364546707,DOMESTIC,,,,GAMA,TEH 720,Quail Ridge Road,2005,4
36614,TEH 650,0.0,TCE,2005-04-05,UG/L,ND,,40.287558064,-122.32998154,DOMESTIC,,,,GAMA,TEH 650,Matlock Loop,2005,4
36709,TEH 889,0.0,TCE,2005-06-01,UG/L,ND,,40.237859,-122.36039479999998,DOMESTIC,,,,GAMA,TEH 889,Chisholm Circle,2005,6
36744,TEH 786,0.0,TCE,2005-06-01,UG/L,ND,,40.2426751,-122.2073956,DOMESTIC,,,,GAMA,TEH 786,China Rapids,2005,6
36774,TEH 684,0.0,TCE,2005-04-15,UG/L,ND,,40.2889019,-122.279696,DOMESTIC,,,,GAMA,TEH 684,Hickman Lane,2005,4
36962,TEH 687,0.0,TCE,2005-04-19,UG/L,ND,,40.266622907,-122.404960898,DOMESTIC,,,,GAMA,TEH 687,Rising Ridge Lane,2005,4
36998,TEH 743,0.0,TCE,2005-05-03,UG/L,ND,,40.253492056,-122.20892283,DOMESTIC,,,,GAMA,TEH 743,East Wallen Road,2005,5
37433,YUB 312,0.5,TCE,2002-05-14,UG/L,<,,39.049800246,-121.560348831,DOMESTIC,,,,GAMA,YUB 312,Broadway Road,2002,5
37555,YUB 258,0.5,TCE,2002-05-07,UG/L,<,,39.04948964,-121.33233246399999,DOMESTIC,,,,GAMA,YUB 258,Camp Far West Road,2002,5
37628,YUB 217,0.5,TCE,2002-05-09,UG/L,<,,39.322778223,-121.272407081,DOMESTIC,,,,GAMA,YUB 217,Westwood Trail,2002,5
37651,YUB 285,0.5,TCE,2002-05-29,UG/L,<,,39.390121845,-121.10750233,DOMESTIC,,,,GAMA,YUB 285,Moonshine Road,2002,5
37674,YUB 214,0.5,TCE,2002-04-29,UG/L,<,,39.318896586,-121.26211964299999,DOMESTIC,,,,GAMA,YUB 214,Emerald Way,2002,4
37762,YUB 207,0.5,TCE,2002-05-23,UG/L,<,,39.265963125999995,-121.53964292,DOMESTIC,,,,GAMA,YUB 207,Ramirez Road,2002,5
37779,YUB 241,0.5,TCE,2002-04-29,UG/L,<,,39.336910909000004,-121.274164572,DOMESTIC,,,,GAMA,YUB 241,Aurora Lane,2002,4
37806,YUB 327P,0.5,TCE,2002-01-11,UG/L,<,,39.179069399999996,-120.95554440000001,DOMESTIC,,,,GAMA,YUB 327P,Sontag Road,2002,1
37849,YUB 257,0.5,TCE,2002-05-17,UG/L,<,,39.234455935999996,-121.41738506200001,DOMESTIC,,,,GAMA,YUB 257,Harper Way,2002,5
37917,YUB 325P,0.5,TCE,2002-01-11,UG/L,<,,38.68535065,-120.64776450000001,DOMESTIC,,,,GAMA,YUB 325P,Sly Park Road,2002,1
37956,YUB 263,0.5,TCE,2002-05-08,UG/L,<,,39.025346998,-121.45200217600001,DOMESTIC,,,,GAMA,YUB 263,Dairy Road,2002,5
37973,YUB 284,0.5,TCE,2002-05-29,UG/L,<,,39.383093326,-121.12040081100001,DOMESTIC,,,,GAMA,YUB 284,Moonshine Road,2002,5
38106,YUB 298,0.5,TCE,2002-04-29,UG/L,<,,39.312029531,-121.28116836,DOMESTIC,,,,GAMA,YUB 298,Regent Way,2002,4
38115,YUB 297,0.5,TCE,2002-06-14,UG/L,<,,39.31427925,-121.270753677,DOMESTIC,,,,GAMA,YUB 297,Regent Way,2002,6
38141,YUB 306,0.5,TCE,2002-04-29,UG/L,<,,39.395222568,-121.202505396,DOMESTIC,,,,GAMA,YUB 306,Sweet Birch Trail,2002,4
38240,YUB 273,0.5,TCE,2002-05-28,UG/L,<,,39.519975653,-121.188634384,DOMESTIC,,,,GAMA,YUB 273,La Porte Road,2002,5
38353,YUB 234,0.5,TCE,2002-05-28,UG/L,<,,39.547227772,-121.131402844,DOMESTIC,,,,GAMA,YUB 234,Barton Hill Road,2002,5
38399,YUB 293,0.5,TCE,2002-04-30,UG/L,<,,39.373101922,-121.25558816799999,DOMESTIC,,,,GAMA,YUB 293,Quintera Way,2002,4
38416,YUB 292,0.5,TCE,2002-04-30,UG/L,<,,39.373231241999996,-121.254230995,DOMESTIC,,,,GAMA,YUB 292,Quintera Way,2002,4
38940,ED 647,1.0,TCE,2004-05-14,UG/L,<,,38.817687234,-121.016555133,DOMESTIC,,,,GAMA,ED 647,VIENNA DRIVE,2004,5
38990,ED 316,1.0,TCE,2003-02-11,UG/L,<,,38.70270687,-120.72628229999998,DOMESTIC,,,,GAMA,ED 316,SERENITY DRIVE,2003,2
39178,ED 333,1.0,TCE,2003-02-20,UG/L,<,,38.67254089,-120.82162790000001,DOMESTIC,,,,GAMA,ED 333,TULLIS MINE ROAD,2003,2
39219,ED 401,1.0,TCE,2003-03-28,UG/L,<,,38.63045029,-120.9593875,DOMESTIC,,,,GAMA,ED 401,BARNETT RANCH ROAD,2003,3
39282,ED 511,1.0,TCE,2004-04-12,UG/L,<,,38.860651321,-121.021929629,DOMESTIC,,,,GAMA,ED 511,CATECROFT LANE,2004,4
39614,ED 478,1.0,TCE,2003-05-27,UG/L,<,,38.78637186,-120.94251570000002,DOMESTIC,,,,GAMA,ED 478,CROOKED MILE COURT,2003,5
39673,ED 408,1.0,TCE,2003-03-18,UG/L,<,,38.76411351,-120.91153440000001,DOMESTIC,,,,GAMA,ED 408,CARLTON LANE,2003,3
39786,ED 359,1.0,TCE,2003-03-05,UG/L,<,,38.579480100000005,-120.9803344,DOMESTIC,,,,GAMA,ED 359,BRYANT ROAD,2003,3
39830,ED 461,1.0,TCE,2003-05-08,UG/L,<,,38.80257152,-120.9202442,DOMESTIC,,,,GAMA,ED 461,BASSI ROAD,2003,5
39839,ED 510,1.0,TCE,2004-04-12,UG/L,<,,38.87429968,-121.013835919,DOMESTIC,,,,GAMA,ED 510,PHEASANT CREST ROAD,2004,4
39882,ED 565,1.0,TCE,2004-04-27,UG/L,<,,38.768285803000005,-120.755941167,DOMESTIC,,,,GAMA,ED 565,MOSQUITO ROAD,2004,4
39988,ED 356,1.0,TCE,2003-03-04,UG/L,<,,38.73081093,-120.7403577,DOMESTIC,,,,GAMA,ED 356,NEWTOWN ROAD,2003,3
40000,ED 366,1.0,TCE,2003-03-12,UG/L,<,,38.59463362,-120.9715128,DOMESTIC,,,,GAMA,ED 366,COTHRIN RANCH ROAD,2003,3
40054,ED 464,1.0,TCE,2003-05-08,UG/L,<,,38.79732524,-120.8889381,DOMESTIC,,,,GAMA,ED 464,HIGHWAY 49,2003,5
40101,ED 588,1.0,TCE,2004-04-29,UG/L,<,,38.783899315999996,-121.034165212,DOMESTIC,,,,GAMA,ED 588,SALMON FALLS ROAD,2004,4
40125,ED 613,1.0,TCE,2004-05-06,UG/L,<,,38.825942600000005,-120.802319,DOMESTIC,,,,GAMA,ED 613,TRAVERSE CREEK ROAD,2004,5
40170,ED 365,1.0,TCE,2003-03-12,UG/L,<,,38.60287059,-121.013314,DOMESTIC,,,,GAMA,ED 365,COTHRIN RANCH ROAD,2003,3
40273,ED 540,1.0,TCE,2004-04-13,UG/L,<,,38.621501879,-120.755807922,DOMESTIC,,,,GAMA,ED 540,SAND RIDGE ROAD,2004,4
40400,ED 681,1.0,TCE,2004-06-02,UG/L,<,,38.791054087,-120.826517471,DOMESTIC,,,,GAMA,ED 681,BRIGHT HOPE MINE,2004,6
40604,ED 341,1.0,TCE,2003-02-25,UG/L,<,,38.67483672,-120.78180490000001,DOMESTIC,,,,GAMA,ED 341,TANNENBAUM COURT,2003,2
40626,ED 473,1.0,TCE,2003-05-14,UG/L,<,,38.79653463,-120.93545929999999,DOMESTIC,,,,GAMA,ED 473,THREAD NEEDLE LANE,2003,5
40697,ED 484,1.0,TCE,2003-05-28,UG/L,<,,38.76782558,-120.916625,DOMESTIC,,,,GAMA,ED 484,KEN DEREK LANE,2003,5
40764,ED 621,1.0,TCE,2004-05-18,UG/L,<,,38.765316808,-120.986388597,DOMESTIC,,,,GAMA,ED 621,LUNEMAN ROAD,2004,5
40947,ED 391,1.0,TCE,2003-03-26,UG/L,<,,38.70257336,-120.97706529999999,DOMESTIC,,,,GAMA,ED 391,VALLEY VIEW ROAD,2003,3
41051,ED 314,1.0,TCE,2003-02-06,UG/L,<,,38.680536,-120.76486680000001,DOMESTIC,,,,GAMA,ED 314,WESTLEY ROAD,2003,2
41138,ED 628,1.0,TCE,2004-05-10,UG/L,<,,38.814765453,-121.016526973,DOMESTIC,,,,GAMA,ED 628,VIENNA DRIVE,2004,5
41230,ED 544,1.0,TCE,2004-04-14,UG/L,<,,38.824602668000004,-121.02833252799999,DOMESTIC,,,,GAMA,ED 544,SCOTTS CREEK ROAD,2004,4
41240,ED 595,1.0,TCE,2004-05-05,UG/L,<,,38.654592176,-120.90991443,DOMESTIC,,,,GAMA,ED 595,LOST CREEK ROAD,2004,5
41282,ED 306,1.0,TCE,2003-02-05,UG/L,<,,38.59648809,-120.94986920000001,DOMESTIC,,,,GAMA,ED 306,SHADOW HAWK DRIVE,2003,2
41307,ED 339,1.0,TCE,2003-03-13,UG/L,<,,38.73458143,-120.7299288,DOMESTIC,,,,GAMA,ED 339,LEANING TREE ROAD,2003,3
41332,ED 405,1.0,TCE,2003-03-19,UG/L,<,,38.75327345,-120.8898183,DOMESTIC,,,,GAMA,ED 405,GOLDSTAKE DRIVE,2003,3
41600,ED 343,1.0,TCE,2003-02-26,UG/L,<,,38.70642111,-120.7152254,DOMESTIC,,,,GAMA,ED 343,FORT JIM ROAD,2003,2
41642,ED 423,1.0,TCE,2003-04-03,UG/L,<,,38.61869738,-121.01436499999998,DOMESTIC,,,,GAMA,ED 423,RYAN RANCH ROAD,2003,4
41676,ED 539,1.0,TCE,2004-04-27,UG/L,<,,38.795030125,-120.76477264100001,DOMESTIC,,,,GAMA,ED 539,TRAIL GULCH,2004,4
41689,ED 545,1.0,TCE,2004-04-12,UG/L,<,,38.627628031,-120.722395485,DOMESTIC,,,,GAMA,ED 545,CUTWAY LANE,2004,4
41719,ED 657,1.0,TCE,2004-05-24,UG/L,<,,38.689989446999995,-120.65841265600001,DOMESTIC,,,,GAMA,ED 657,ALAMEDA ROAD,2004,5
41861,ED 529,1.0,TCE,2004-04-23,UG/L,<,,38.662891261,-120.881385404,DOMESTIC,,,,GAMA,ED 529,KITS COURT,2004,4
41920,ED 376,1.0,TCE,2003-03-11,UG/L,<,,38.59870748,-121.00135900000001,DOMESTIC,,,,GAMA,ED 376,GRAZING HILL ROAD,2003,3
41958,ED 574,1.0,TCE,2004-04-28,UG/L,<,,38.879407455999996,-120.947510896,DOMESTIC,,,,GAMA,ED 574,CUTTERS CORNER,2004,4
41976,ED 482,1.0,TCE,2003-05-27,UG/L,<,,38.81362697,-120.9308885,DOMESTIC,,,,GAMA,ED 482,PETERSEN LANE,2003,5
42002,ED 646,1.0,TCE,2004-05-14,UG/L,<,,38.818451684,-121.017402906,DOMESTIC,,,,GAMA,ED 646,VIENNA DRIVE,2004,5
42143,ED 499,1.0,TCE,2004-04-13,UG/L,<,,38.66954258,-120.741696913,DOMESTIC,,,,GAMA,ED 499,NOWALK ROAD,2004,4
42265,ED 398,1.0,TCE,2003-03-18,UG/L,<,,38.68640228,-120.9276719,DOMESTIC,,,,GAMA,ED 398,N SHINGLE ROAD,2003,3
42384,ED 354,1.0,TCE,2003-03-04,UG/L,<,,38.71919726,-120.7642874,DOMESTIC,,,,GAMA,ED 354,PAY DIRT ROAD,2003,3
42456,ED 688,1.0,TCE,2004-06-08,UG/L,<,,38.811562796,-120.900425379,DOMESTIC,,,,GAMA,ED 688,LITTLE COURT,2004,6
42711,ED 385,1.0,TCE,2003-03-25,UG/L,<,,38.60390785,-121.0068918,DOMESTIC,,,,GAMA,ED 385,VENTURE VALLEY ROAD,2003,3
42798,ED 328,1.0,TCE,2003-02-19,UG/L,<,,38.73317336,-120.73364860000001,DOMESTIC,,,,GAMA,ED 328,LEANING TREE ROAD,2003,2
42818,ED 549,1.0,TCE,2004-04-12,UG/L,<,,38.863144946999995,-121.02080159,DOMESTIC,,,,GAMA,ED 549,CATECROFT LANE,2004,4
42980,TUL1094,0.0,TCE,2006-06-21,UG/L,ND,0.5,36.4756912,-119.1255717,DOMESTIC,,,,GAMA,TUL1094,TUL1094,2006,6
43004,TUL909,0.0,TCE,2006-04-19,UG/L,ND,0.5,36.33387583,-119.14606090000002,DOMESTIC,,,,GAMA,TUL909,TUL909,2006,4
43031,TUL1106,0.0,TCE,2006-06-22,UG/L,ND,0.5,36.3586492,-119.27963940000001,DOMESTIC,,,,GAMA,TUL1106,TUL1106,2006,6
43039,TUL946,0.0,TCE,2006-04-27,UG/L,ND,0.5,36.09579384,-119.0429791,DOMESTIC,,,,GAMA,TUL946,TUL946,2006,4
43150,TUL1044,0.0,TCE,2006-06-08,UG/L,ND,0.5,36.38411809,-119.1105855,DOMESTIC,,,,GAMA,TUL1044,TUL1044,2006,6
43195,TUL1105,0.0,TCE,2006-06-20,UG/L,ND,0.5,36.516493897,-119.31313436,DOMESTIC,,,,GAMA,TUL1105,TUL1105,2006,6
43275,TUL1062,0.0,TCE,2006-06-15,UG/L,ND,0.5,36.06154556,-118.9952457,DOMESTIC,,,,GAMA,TUL1062,TUL1062,2006,6
43312,TUL1075,0.0,TCE,2006-06-15,UG/L,ND,0.5,36.31056409,-119.1575457,DOMESTIC,,,,GAMA,TUL1075,TUL1075,2006,6
43342,TUL974,0.0,TCE,2006-05-10,UG/L,ND,0.5,36.44040820000001,-119.09953030000001,DOMESTIC,,,,GAMA,TUL974,TUL974,2006,5
43419,TUL970,0.0,TCE,2006-05-11,UG/L,ND,0.5,36.54223388,-119.23360490000002,DOMESTIC,,,,GAMA,TUL970,TUL970,2006,5
43464,TUL1058,0.0,TCE,2006-06-14,UG/L,ND,0.5,36.35741321,-119.06613840000001,DOMESTIC,,,,GAMA,TUL1058,TUL1058,2006,6
43540,TUL1092,0.0,TCE,2006-06-21,UG/L,ND,0.5,36.478300903000004,-119.385779698,DOMESTIC,,,,GAMA,TUL1092,TUL1092,2006,6
43574,TUL988,0.0,TCE,2006-06-06,UG/L,ND,0.5,36.2115209,-119.177175,DOMESTIC,,,,GAMA,TUL988,TUL988,2006,6
43645,TUL912,0.0,TCE,2006-04-19,UG/L,ND,0.5,36.40111514,-119.125413,DOMESTIC,,,,GAMA,TUL912,TUL912,2006,4
43816,TUL930,0.0,TCE,2006-04-25,UG/L,ND,0.5,36.21271604,-119.22816029999998,DOMESTIC,,,,GAMA,TUL930,TUL930,2006,4
43958,TUL1061,0.0,TCE,2006-06-14,UG/L,ND,0.5,36.37625556,-119.03944070000001,DOMESTIC,,,,GAMA,TUL1061,TUL1061,2006,6
44034,TUL1083,0.0,TCE,2006-06-15,UG/L,ND,0.5,36.29117451,-119.2557102,DOMESTIC,,,,GAMA,TUL1083,TUL1083,2006,6
44101,MON128,0.5,TCE,2011-05-17,UG/L,<,0.5,36.85692474,-121.6412412,DOMESTIC,,,,GAMA,MON128,MON128,2011,5
44171,MON146,0.5,TCE,2011-05-26,UG/L,<,0.5,36.56141723,-121.90218130000001,DOMESTIC,,,,GAMA,MON146,MON146,2011,5
44187,MON154,0.5,TCE,2011-06-08,UG/L,<,0.5,36.52747672,-121.8728331,DOMESTIC,,,,GAMA,MON154,MON154,2011,6
44302,MON156,0.5,TCE,2011-06-09,UG/L,<,0.5,36.52389119,-121.79088440000001,DOMESTIC,,,,GAMA,MON156,MON156,2011,6
44370,MON115,0.5,TCE,2011-05-10,UG/L,<,0.5,36.56886706,-121.70975790000001,DOMESTIC,,,,GAMA,MON115,MON115,2011,5
44387,MON165,0.5,TCE,2011-06-16,UG/L,<,0.5,36.81534396,-121.6984281,DOMESTIC,,,,GAMA,MON165,MON165,2011,6
44521,MON112,0.5,TCE,2011-05-05,UG/L,<,0.5,36.81929519,-121.65064369999999,DOMESTIC,,,,GAMA,MON112,MON112,2011,5
44568,MON155,0.5,TCE,2011-06-09,UG/L,<,0.5,36.52631558,-121.78891740000002,DOMESTIC,,,,GAMA,MON155,MON155,2011,6
44592,MON106,0.5,TCE,2011-05-04,UG/L,<,0.5,36.79692356,-121.651058,DOMESTIC,,,,GAMA,MON106,MON106,2011,5
44617,TUL915,0.0,TCE,2006-04-19,UG/L,ND,0.5,36.36697072,-119.02089529999999,DOMESTIC,,,,GAMA,TUL915,TUL915,2006,4
44634,MON118,0.5,TCE,2011-05-10,UG/L,<,0.5,36.5718506,-121.713835,DOMESTIC,,,,GAMA,MON118,MON118,2011,5
44650,MON136,0.5,TCE,2011-05-19,UG/L,<,0.5,36.84487249,-121.7436197,DOMESTIC,,,,GAMA,MON136,MON136,2011,5
44665,MON183,0.5,TCE,2011-06-27,UG/L,<,0.5,36.76696764,-121.68878829999998,DOMESTIC,,,,GAMA,MON183,MON183,2011,6
44701,MON182,0.5,TCE,2011-06-28,UG/L,<,0.5,35.99029589,-121.13236370000001,DOMESTIC,,,,GAMA,MON182,MON182,2011,6
44730,MON129,0.5,TCE,2011-05-17,UG/L,<,0.5,36.8465321,-121.64180490000001,DOMESTIC,,,,GAMA,MON129,MON129,2011,5
44798,MON103,0.5,TCE,2011-05-03,UG/L,<,0.5,36.78434904,-121.62909920000001,DOMESTIC,,,,GAMA,MON103,MON103,2011,5
44839,MON113,0.5,TCE,2011-05-05,UG/L,<,0.5,36.79612376,-121.6179618,DOMESTIC,,,,GAMA,MON113,MON113,2011,5
45000,MON117,0.5,TCE,2011-05-10,UG/L,<,0.5,36.55908639,-121.69927890000001,DOMESTIC,,,,GAMA,MON117,MON117,2011,5
45068,MON148,0.5,TCE,2011-05-24,UG/L,<,0.5,36.80932232,-121.63630970000001,DOMESTIC,,,,GAMA,MON148,MON148,2011,5
45121,SD 914,0.5,TCE,2008-12-04,UG/L,<,0.5,33.073806805,-116.583702249,DOMESTIC,,,,GAMA,SD 914,SD 914,2008,12
45165,SD 902,0.5,TCE,2008-12-02,UG/L,<,0.5,32.688473183,-116.475317727,DOMESTIC,,,,GAMA,SD 902,SD 902,2008,12
45243,MON153,0.5,TCE,2011-06-08,UG/L,<,0.5,36.51321491,-121.8280936,DOMESTIC,,,,GAMA,MON153,MON153,2011,6
45405,SD 881,0.5,TCE,2008-06-18,UG/L,<,0.5,32.86777143,-116.59236680000001,DOMESTIC,,,,GAMA,SD 881,SD 881,2008,6
45502,TUL1100,0.0,TCE,2006-06-20,UG/L,ND,0.5,36.611719811,-119.097464341,DOMESTIC,,,,GAMA,TUL1100,TUL1100,2006,6
45535,SD 911,0.5,TCE,2008-12-04,UG/L,<,0.5,32.603631404,-116.687086469,DOMESTIC,,,,GAMA,SD 911,SD 911,2008,12
45747,MON157,0.5,TCE,2011-06-14,UG/L,<,0.5,36.55236511,-121.4750488,DOMESTIC,,,,GAMA,MON157,MON157,2011,6
45803,SD 813,0.5,TCE,2008-05-07,UG/L,<,0.5,33.03773988,-116.8559409,DOMESTIC,,,,GAMA,SD 813,SD 813,2008,5
45897,SD 855,0.5,TCE,2008-06-04,UG/L,<,0.5,33.3020896,-117.24460990000001,DOMESTIC,,,,GAMA,SD 855,SD 855,2008,6
46017,TUL995,0.0,TCE,2006-05-17,UG/L,ND,0.5,36.00726087,-118.8981507,DOMESTIC,,,,GAMA,TUL995,TUL995,2006,5
46043,TUL948,0.0,TCE,2006-04-26,UG/L,ND,0.5,35.9219309,-119.2512571,DOMESTIC,,,,GAMA,TUL948,TUL948,2006,4
46054,SD 885,0.5,TCE,2008-06-17,UG/L,<,0.5,32.84607802,-116.61362549999998,DOMESTIC,,,,GAMA,SD 885,SD 885,2008,6
46283,SD 943,0.5,TCE,2008-12-18,UG/L,<,0.5,33.203120266,-116.738283835,DOMESTIC,,,,GAMA,SD 943,SD 943,2008,12
46299,TUL1036,0.0,TCE,2006-06-06,UG/L,ND,0.5,36.26441796,-119.2957687,DOMESTIC,,,,GAMA,TUL1036,TUL1036,2006,6
46346,SD 933,0.5,TCE,2009-01-06,UG/L,<,0.5,32.792518591,-116.824161353,DOMESTIC,,,,GAMA,SD 933,SD 933,2009,1
46476,SD 808,0.5,TCE,2008-05-01,UG/L,<,0.5,33.03454053,-116.8158417,DOMESTIC,,,,GAMA,SD 808,SD 808,2008,5
46491,SD 803,0.5,TCE,2008-04-29,UG/L,<,0.5,33.00350929,-116.7876645,DOMESTIC,,,,GAMA,SD 803,SD 803,2008,4
46627,TUL1085,0.0,TCE,2006-06-20,UG/L,ND,0.5,36.60155974,-119.2456253,DOMESTIC,,,,GAMA,TUL1085,TUL1085,2006,6
46675,SD 861,0.5,TCE,2008-06-10,UG/L,<,0.5,32.90611449,-116.9037238,DOMESTIC,,,,GAMA,SD 861,SD 861,2008,6
46729,TUL1011,0.0,TCE,2006-05-24,UG/L,ND,0.5,35.93120946,-119.2751685,DOMESTIC,,,,GAMA,TUL1011,TUL1011,2006,5
46758,SD 843,0.5,TCE,2008-05-28,UG/L,<,0.5,33.37479309,-117.12602150000001,DOMESTIC,,,,GAMA,SD 843,SD 843,2008,5
46788,SD 892,0.5,TCE,2008-06-19,UG/L,<,0.5,32.67593697,-116.31725049999999,DOMESTIC,,,,GAMA,SD 892,SD 892,2008,6
46818,TUL1091,0.0,TCE,2006-06-21,UG/L,ND,0.5,36.338692920999996,-119.04504394,DOMESTIC,,,,GAMA,TUL1091,TUL1091,2006,6
47042,TUL1022,0.0,TCE,2006-05-24,UG/L,ND,0.5,36.05032889,-119.5311654,DOMESTIC,,,,GAMA,TUL1022,TUL1022,2006,5
47123,TUL982,0.0,TCE,2006-05-16,UG/L,ND,0.5,36.14286504,-118.87682759999998,DOMESTIC,,,,GAMA,TUL982,TUL982,2006,5
47151,MON171,0.5,TCE,2011-06-21,UG/L,<,0.5,35.99807312,-121.1166949,DOMESTIC,,,,GAMA,MON171,MON171,2011,6
47206,TUL981,0.0,TCE,2006-05-16,UG/L,ND,0.5,36.10443846,-118.91048570000001,DOMESTIC,,,,GAMA,TUL981,TUL981,2006,5
47330,SD 937,0.5,TCE,2008-12-18,UG/L,<,0.5,33.420303674,-116.829277081,DOMESTIC,,,,GAMA,SD 937,SD 937,2008,12
47410,SD 901,0.5,TCE,2008-12-02,UG/L,<,0.5,32.750433786,-116.75371715799999,DOMESTIC,,,,GAMA,SD 901,SD 901,2008,12
47588,TEH 801,0.0,TCE,2005-05-19,UG/L,ND,,40.054299839,-122.064777831,DOMESTIC,,,,GAMA,TEH 801,Wilson Road,2005,5
47718,TEH 847,0.0,TCE,2005-05-17,UG/L,ND,,40.01001052,-122.07924906299999,DOMESTIC,,,,GAMA,TEH 847,Tehama Vina Road,2005,5
47914,TEH 867,0.0,TCE,2005-05-26,UG/L,ND,,40.0378661,-122.10678519999999,DOMESTIC,,,,GAMA,TEH 867,Marek Road,2005,5
47941,TEH 893,0.0,TCE,2005-06-03,UG/L,ND,,40.0321833,-122.10972509999999,DOMESTIC,,,,GAMA,TEH 893,Tehama Vina Road,2005,6
48018,TEH 880,0.0,TCE,2005-05-24,UG/L,ND,,40.0609284,-122.09133770000001,DOMESTIC,,,,GAMA,TEH 880,Shasta Blvd.,2005,5
48315,TEH 774,0.0,TCE,2005-04-27,UG/L,ND,,40.048054662,-122.11027105299999,DOMESTIC,,,,GAMA,TEH 774,Taft Street,2005,4
48349,TEH 899,0.0,TCE,2005-05-25,UG/L,ND,,40.0418365,-122.1105443,DOMESTIC,,,,GAMA,TEH 899,Ellis Street,2005,5
48365,TEH 894,0.0,TCE,2005-06-03,UG/L,ND,,40.03226970000001,-122.10434529999999,DOMESTIC,,,,GAMA,TEH 894,Tehama Vina Road,2005,6
48424,TEH 811,0.0,TCE,2005-05-12,UG/L,ND,,40.2367575,-122.3670527,DOMESTIC,,,,GAMA,TEH 811,Santa Therese Court,2005,5
48437,TEH 836,0.0,TCE,2005-05-19,UG/L,ND,,40.05314801,-122.05965274100001,DOMESTIC,,,,GAMA,TEH 836,Wilson Street,2005,5
48483,TEH 771,0.0,TCE,2005-04-26,UG/L,ND,,40.293709278,-122.352821549,DOMESTIC,,,,GAMA,TEH 771,Brush Trail,2005,4
48542,TEH 689,0.0,TCE,2005-04-19,UG/L,ND,,40.252205644,-122.213454254,DOMESTIC,,,,GAMA,TEH 689,W. Wallen Road,2005,4
48708,TEH 834,0.0,TCE,2005-05-20,UG/L,ND,,40.239132016999996,-122.208370459,DOMESTIC,,,,GAMA,TEH 834,China RapidsDrive,2005,5
48722,TEH 651,0.0,TCE,2005-04-05,UG/L,ND,,40.28697172,-122.33360835200001,DOMESTIC,,,,GAMA,TEH 651,'C' Road,2005,4
48729,TEH 658,0.0,TCE,2005-04-06,UG/L,ND,,40.298319896,-122.266641625,DOMESTIC,,,,GAMA,TEH 658,Scenic Drive,2005,4
48790,TEH 698,0.0,TCE,2005-04-26,UG/L,ND,,40.274296717,-122.347447844,DOMESTIC,,,,GAMA,TEH 698,Lingering Oak Lane,2005,4
48844,TEH 693,0.0,TCE,2005-04-21,UG/L,ND,,40.274036435999996,-122.412128583,DOMESTIC,,,,GAMA,TEH 693,Benson Road,2005,4
48942,TEH 657,0.0,TCE,2005-04-06,UG/L,ND,,40.297903239,-122.264553056,DOMESTIC,,,,GAMA,TEH 657,Scenic Drive,2005,4
48968,TEH 724,0.0,TCE,2005-04-20,UG/L,ND,,40.246149121,-122.22716563,DOMESTIC,,,,GAMA,TEH 724,Jellys Ferry,2005,4
49099,TEH 828,0.0,TCE,2005-05-10,UG/L,ND,,40.251940085,-122.20880753899999,DOMESTIC,,,,GAMA,TEH 828,East Wallen Road,2005,5
49204,TEH 669,0.0,TCE,2005-04-13,UG/L,ND,,40.272344808,-122.400004451,DOMESTIC,,,,GAMA,TEH 669,South Lake Road,2005,4
49334,TEH 666,0.0,TCE,2005-04-06,UG/L,ND,,40.31178232,-122.410263399,DOMESTIC,,,,GAMA,TEH 666,Cross Creek Drive,2005,4
49384,TEH 809,0.0,TCE,2005-05-12,UG/L,ND,,40.229238478,-122.286432335,DOMESTIC,,,,GAMA,TEH 809,McCoy Road,2005,5
49554,TEH 722,0.0,TCE,2005-04-20,UG/L,ND,,40.281817441,-122.375555825,DOMESTIC,,,,GAMA,TEH 722,Hidden Valley,2005,4
49602,TEH 777,0.0,TCE,2005-05-05,UG/L,ND,,40.235250387,-122.268084359,DOMESTIC,,,,GAMA,TEH 777,Vintage Drive,2005,5
49625,TEH 855,0.0,TCE,2005-05-20,UG/L,ND,,40.238004745,-122.209701097,DOMESTIC,,,,GAMA,TEH 855,China Rapids Drive,2005,5
49675,TEH 663,0.0,TCE,2005-04-07,UG/L,ND,,40.301539899999995,-122.36616210000001,DOMESTIC,,,,GAMA,TEH 663,Big Bear Lane,2005,4
49755,TEH 756,0.0,TCE,2005-05-04,UG/L,ND,,40.243263299999995,-122.2412062,DOMESTIC,,,,GAMA,TEH 756,Penneleme Road,2005,5
49789,TEH 793,0.0,TCE,2005-05-10,UG/L,ND,,40.330972043,-122.19768766,DOMESTIC,,,,GAMA,TEH 793,Saron Fruit Colony Road,2005,5
49863,TEH 796,0.0,TCE,2005-05-05,UG/L,ND,,40.250832905,-122.21832101,DOMESTIC,,,,GAMA,TEH 796,Johnson Road,2005,5
50090,YUB 313,0.5,TCE,2002-05-29,UG/L,<,,39.045796032,-121.56501870299999,DOMESTIC,,,,GAMA,YUB 313,Dye Road,2002,5
50107,YUB 315,0.5,TCE,2002-05-13,UG/L,<,,39.04903667,-121.564311388,DOMESTIC,,,,GAMA,YUB 315,Simeroth Lane,2002,5
50142,YUB 227,0.5,TCE,2002-05-14,UG/L,<,,39.124835483000005,-121.452513501,DOMESTIC,,,,GAMA,YUB 227,N Beale Road,2002,5
50148,YUB 201,0.5,TCE,2002-05-13,UG/L,<,,39.05328595,-121.559864419,DOMESTIC,,,,GAMA,YUB 201,Warehouse Road,2002,5
50230,YUB 206,0.5,TCE,2002-05-14,UG/L,<,,39.125073926,-121.452074295,DOMESTIC,,,,GAMA,YUB 206,N Beale Road,2002,5
50236,YUB 202,0.5,TCE,2002-05-13,UG/L,<,,39.050834793,-121.55532001600001,DOMESTIC,,,,GAMA,YUB 202,Broadway Road,2002,5
50387,YUB 291,0.5,TCE,2002-04-30,UG/L,<,,39.350200813,-121.232703932,DOMESTIC,,,,GAMA,YUB 291,Providence Way,2002,4
50407,YUB 271,0.5,TCE,2002-05-07,UG/L,<,,39.079657205,-121.332866347,DOMESTIC,,,,GAMA,YUB 271,Kapaka Lane,2002,5
50438,YUB 245,0.5,TCE,2002-06-03,UG/L,<,,38.896218876999995,-121.448837315,DOMESTIC,,,,GAMA,YUB 245,Nicolaus Road,2002,6
50466,YUB 283,0.5,TCE,2002-04-30,UG/L,<,,39.321439641,-121.28153554200001,DOMESTIC,,,,GAMA,YUB 283,Monte Verde Lane,2002,4
50541,YUB 236,0.5,TCE,2002-04-26,UG/L,<,,39.290648211,-121.318567463,DOMESTIC,,,,GAMA,YUB 236,White Oak Lane,2002,4
50554,YUB 254,0.5,TCE,2002-05-20,UG/L,<,,39.318696712,-121.40802288299999,DOMESTIC,,,,GAMA,YUB 254,Bonanza Way,2002,5
50718,YUB 269,0.5,TCE,2002-05-07,UG/L,<,,39.080893882,-121.333310924,DOMESTIC,,,,GAMA,YUB 269,Kapaka Lane,2002,5
50764,YUB 305,0.5,TCE,2002-05-03,UG/L,<,,39.2038599,-121.29481299999999,DOMESTIC,,,,GAMA,YUB 305,Smartville Road,2002,5
50782,YUB 238,0.5,TCE,2002-05-28,UG/L,<,,39.334697301,-121.270445059,DOMESTIC,,,,GAMA,YUB 238,Broyles Trail,2002,5
50795,YUB 246,0.5,TCE,2002-06-03,UG/L,<,,38.898446523000004,-121.103892104,DOMESTIC,,,,GAMA,YUB 246,Millertown Road,2002,6
50829,YUB 205,0.5,TCE,2002-05-07,UG/L,<,,39.07423626,-121.3354111,DOMESTIC,,,,GAMA,YUB 205,Hokan Lane,2002,5
50940,YUB 260,0.5,TCE,2002-05-03,UG/L,<,,39.202058066,-121.31337173600001,DOMESTIC,,,,GAMA,YUB 260,Condor Way,2002,5
51174,YUB 265,0.5,TCE,2002-05-14,UG/L,<,,39.325120984,-121.39897039,DOMESTIC,,,,GAMA,YUB 265,Douglas Way,2002,5
51274,YUB 243,0.5,TCE,2002-05-29,UG/L,<,,39.099710282,-121.55072933299999,DOMESTIC,,,,GAMA,YUB 243,Olivehurst Avenue,2002,5
51340,YUB 282,0.5,TCE,2002-04-30,UG/L,<,,39.323925469,-121.28213508299999,DOMESTIC,,,,GAMA,YUB 282,Monte Verde Lane,2002,4
51350,YUB 220,0.5,TCE,2002-05-07,UG/L,<,,39.051232979,-121.330251911,DOMESTIC,,,,GAMA,YUB 220,Camp Far West Road,2002,5
51361,YUB 240,0.5,TCE,2002-05-29,UG/L,<,,39.456913262,-121.036428916,DOMESTIC,,,,GAMA,YUB 240,Mountain House Road,2002,5
51727,ED 552,1.0,TCE,2004-05-05,UG/L,<,,38.654108522,-120.908181787,DOMESTIC,,,,GAMA,ED 552,LOST CREEK ROAD,2004,5
51897,ED 427,1.0,TCE,2003-04-02,UG/L,<,,38.72529288,-120.85162959999998,DOMESTIC,,,,GAMA,ED 427,JERICHO ROAD,2003,4
51905,ED 433,1.0,TCE,2003-04-01,UG/L,<,,38.72208595,-120.96047730000001,DOMESTIC,,,,GAMA,ED 433,TIFFANY HILL,2003,4
51934,ED 569,1.0,TCE,2004-04-26,UG/L,<,,38.621749382,-120.75453440700001,DOMESTIC,,,,GAMA,ED 569,SAND RIDGE ROAD,2004,4
51973,ED 620,1.0,TCE,2004-05-12,UG/L,<,,38.696413033,-120.960154515,DOMESTIC,,,,GAMA,ED 620,POACHING LANE,2004,5
52011,ED 690,1.0,TCE,2004-06-09,UG/L,<,,38.836073221999996,-120.820724017,DOMESTIC,,,,GAMA,ED 690,AMERICAN FLAT TRAIL,2004,6
52022,ED 317,1.0,TCE,2003-02-11,UG/L,<,,38.684718700000005,-120.66791429999999,DOMESTIC,,,,GAMA,ED 317,LIESURE LANE,2003,2
52056,ED 372,1.0,TCE,2003-03-18,UG/L,<,,38.70575943,-120.94935659999999,DOMESTIC,,,,GAMA,ED 372,ROLLING RANCH,2003,3
52300,ED 526,1.0,TCE,2004-04-21,UG/L,<,,38.694443015,-120.97917918,DOMESTIC,,,,GAMA,ED 526,LITTLE OAK LANE,2004,4
52511,ED 534,1.0,TCE,2004-04-13,UG/L,<,,38.584457201,-120.741208842,DOMESTIC,,,,GAMA,ED 534,MOUNT AUKUM ROAD,2004,4
52644,ED 394,1.0,TCE,2003-03-19,UG/L,<,,38.79025224,-120.88251059999999,DOMESTIC,,,,GAMA,ED 394,HIGHWAY 49,2003,3
52652,ED 413,1.0,TCE,2003-03-27,UG/L,<,,38.77198464,-120.86305700000001,DOMESTIC,,,,GAMA,ED 413,RIVERWOOD DRIVE,2003,3
52915,ED 521,1.0,TCE,2004-04-22,UG/L,<,,38.593755078,-120.855804569,DOMESTIC,,,,GAMA,ED 521,MICA STREET,2004,4
52925,ED 546,1.0,TCE,2004-04-13,UG/L,<,,38.597900443,-120.798930974,DOMESTIC,,,,GAMA,ED 546,SAND RIDGE ROAD,2004,4
53127,ED 303,1.0,TCE,2003-02-05,UG/L,<,,38.68642029,-120.7542523,DOMESTIC,,,,GAMA,ED 303,DEL HAVEN ROAD,2003,2
53320,ED 682,1.0,TCE,2004-06-15,UG/L,<,,38.779636473000004,-120.619099153,DOMESTIC,,,,GAMA,ED 682,FOREBAY,2004,6
53427,ED 685,1.0,TCE,2004-06-12,UG/L,<,,38.792366319,-120.843156361,DOMESTIC,,,,GAMA,ED 685,SOURDOUGH TRAIL,2004,6
53565,ED 496,1.0,TCE,2004-04-23,UG/L,<,,38.612646127,-120.861589756,DOMESTIC,,,,GAMA,ED 496,SILVA WAY,2004,4
53575,ED 515,1.0,TCE,2004-04-15,UG/L,<,,38.810846358,-120.925469996,DOMESTIC,,,,GAMA,ED 515,PETERSEN LANE,2004,4
53617,ED 603,1.0,TCE,2004-05-04,UG/L,<,,38.818045487,-120.83603952200001,DOMESTIC,,,,GAMA,ED 603,POOHS PATH,2004,5
53680,ED 334,1.0,TCE,2003-02-21,UG/L,<,,38.70385079,-120.7667459,DOMESTIC,,,,GAMA,ED 334,TECOLTE DRIVE,2003,2
53740,ED 584,1.0,TCE,2004-04-28,UG/L,<,,38.878916909000004,-120.948865161,DOMESTIC,,,,GAMA,ED 584,CUTTERS CORNER,2004,4
53790,ED 321,1.0,TCE,2003-02-13,UG/L,<,,38.69147917,-120.7359304,DOMESTIC,,,,GAMA,ED 321,GREENHILLS ROAD,2003,2
53829,ED 417,1.0,TCE,2003-03-28,UG/L,<,,38.72526413,-120.7212693,DOMESTIC,,,,GAMA,ED 417,FULLMOON DRIVE,2003,3
53843,ED 470,1.0,TCE,2003-05-14,UG/L,<,,38.79597213,-120.9384196,DOMESTIC,,,,GAMA,ED 470,LARGE OAK DRIVE,2003,5
53909,ED 616,1.0,TCE,2004-05-10,UG/L,<,,38.823675807,-121.013740883,DOMESTIC,,,,GAMA,ED 616,SALMON FALLS ROAD,2004,5
53992,ED 505,1.0,TCE,2004-04-22,UG/L,<,,38.862414168,-121.007479497,DOMESTIC,,,,GAMA,ED 505,MEADOWVIEW ACRES ROAD,2004,4
54014,ED 409,1.0,TCE,2003-03-20,UG/L,<,,38.72985338,-120.9646791,DOMESTIC,,,,GAMA,ED 409,RED BUD LANE,2003,3
54230,ED 424,1.0,TCE,2003-04-03,UG/L,<,,38.61844803,-121.02403740000001,DOMESTIC,,,,GAMA,ED 424,RYAN RANCH ROAD,2003,4
54268,ED 592,1.0,TCE,2004-05-07,UG/L,<,,38.621599462,-120.71350685799999,DOMESTIC,,,,GAMA,ED 592,MORNING CANYON ROAD,2004,5
54350,ED 430,1.0,TCE,2003-04-01,UG/L,<,,38.79252833,-120.90915420000002,DOMESTIC,,,,GAMA,ED 430,FLAPJACK COURT,2003,4
54369,ED 498,1.0,TCE,2004-04-14,UG/L,<,,38.634695342,-120.825050235,DOMESTIC,,,,GAMA,ED 498,BUZZ TAIL ROAD,2004,4
54404,ED 615,1.0,TCE,2004-05-11,UG/L,<,,38.830915501,-120.84973184299999,DOMESTIC,,,,GAMA,ED 615,WELCOME LANE,2004,5
54416,ED 683,1.0,TCE,2004-06-15,UG/L,<,,38.4820951,-120.82550479999999,DOMESTIC,,,,GAMA,ED 683,Fiddletown Road,2004,6
54469,ED 453,1.0,TCE,2003-05-06,UG/L,<,,38.80568649,-120.91527430000001,DOMESTIC,,,,GAMA,ED 453,AMOLOC DRIVE,2003,5
54478,ED 468,1.0,TCE,2003-05-13,UG/L,<,,38.60185449,-121.0126521,DOMESTIC,,,,GAMA,ED 468,COTHRIN RANCH ROAD,2003,5
54493,ED 493,1.0,TCE,2004-04-23,UG/L,<,,38.603815657,-120.844544395,DOMESTIC,,,,GAMA,ED 493,UNION MINE ROAD,2004,4
54673,ED 625,1.0,TCE,2004-05-12,UG/L,<,,38.697079263,-120.96027181,DOMESTIC,,,,GAMA,ED 625,POACHING LANE,2004,5
54710,ED 568,1.0,TCE,2004-04-26,UG/L,<,,38.800224637,-120.808039748,DOMESTIC,,,,GAMA,ED 568,LAUGHLIN ROAD,2004,4
54777,ED 614,1.0,TCE,2004-05-11,UG/L,<,,38.840700089,-120.879309369,DOMESTIC,,,,GAMA,ED 614,MARSHALL ROAD,2004,5
54830,ED 481,1.0,TCE,2003-05-27,UG/L,<,,38.81405012,-120.9057237,DOMESTIC,,,,GAMA,ED 481,MARSHALL GRADE ROAD,2003,5
55035,ED 558,1.0,TCE,2004-04-20,UG/L,<,,38.62249156,-120.741625558,DOMESTIC,,,,GAMA,ED 558,STARBURST LANE,2004,4
55051,ED 619,1.0,TCE,2004-05-12,UG/L,<,,38.69620004,-120.95656658700001,DOMESTIC,,,,GAMA,ED 619,SIERRA VISTA ROAD,2004,5
55062,ED 649,1.0,TCE,2004-05-18,UG/L,<,,38.599796828,-120.752335422,DOMESTIC,,,,GAMA,ED 649,LONE BARN ROAD,2004,5
55154,ED 622,1.0,TCE,2004-05-10,UG/L,<,,38.82566003,-121.060023514,DOMESTIC,,,,GAMA,ED 622,BLARNEY WAY,2004,5
55336,ED 429,1.0,TCE,2003-04-02,UG/L,<,,38.67448932,-120.7912028,DOMESTIC,,,,GAMA,ED 429,BIG OAK ROAD,2003,4
55360,ED 547,1.0,TCE,2004-04-13,UG/L,<,,38.629591211,-120.730287516,DOMESTIC,,,,GAMA,ED 547,SAND RIDGE ROAD,2004,4
55555,ED 561,1.0,TCE,2004-04-22,UG/L,<,,38.878410259,-120.979754877,DOMESTIC,,,,GAMA,ED 561,URBAN RETREAT,2004,4
55592,ED 435,1.0,TCE,2003-04-08,UG/L,<,,38.76090258,-120.8693678,DOMESTIC,,,,GAMA,ED 435,SERENITY VALLEY LANE,2003,4
55601,ED 571,1.0,TCE,2004-04-28,UG/L,<,,38.811169402,-121.02534853200001,DOMESTIC,,,,GAMA,ED 571,TRABIN WAY,2004,4
55661,ED 455,1.0,TCE,2003-05-06,UG/L,<,,38.80838787,-120.9454735,DOMESTIC,,,,GAMA,ED 455,UNION TOWN ROAD,2003,5
55684,ED 308,1.0,TCE,2003-02-06,UG/L,<,,38.687504,-120.75256740000002,DOMESTIC,,,,GAMA,ED 308,CEDAR RAVINE ROAD,2003,2
55926,TUL935,0.0,TCE,2006-04-27,UG/L,ND,0.5,36.2323933,-119.11325359999998,DOMESTIC,,,,GAMA,TUL935,TUL935,2006,4
55937,TUL931,0.0,TCE,2006-04-25,UG/L,ND,0.5,36.222462668645,-119.110577443,DOMESTIC,,,,GAMA,TUL931,TUL931,2006,4
55983,TUL924,0.0,TCE,2006-04-20,UG/L,ND,0.5,36.37389,-119.03073,DOMESTIC,,,,GAMA,TUL924,TUL924,2006,4
56019,TUL960,0.0,TCE,2006-05-09,UG/L,ND,0.5,36.01535472,-119.0446315,DOMESTIC,,,,GAMA,TUL960,TUL960,2006,5
56072,TUL976,0.0,TCE,2006-05-10,UG/L,ND,0.5,36.40560455,-119.3237781,DOMESTIC,,,,GAMA,TUL976,TUL976,2006,5
56150,TUL1032,0.0,TCE,2006-05-25,UG/L,ND,0.5,36.53064023,-119.3540812,DOMESTIC,,,,GAMA,TUL1032,TUL1032,2006,5
56240,TUL1080,0.0,TCE,2006-06-15,UG/L,ND,0.5,36.37335557,-119.2704119,DOMESTIC,,,,GAMA,TUL1080,TUL1080,2006,6
56356,TUL1005,0.0,TCE,2006-06-06,UG/L,ND,0.5,36.04449057,-119.1260179,DOMESTIC,,,,GAMA,TUL1005,TUL1005,2006,6
56366,TUL925,0.0,TCE,2006-04-20,UG/L,ND,0.5,36.48654866,-119.186777,DOMESTIC,,,,GAMA,TUL925,TUL925,2006,4
56540,TUL1072,0.0,TCE,2006-06-14,UG/L,ND,0.5,36.45641364,-119.32590400000001,DOMESTIC,,,,GAMA,TUL1072,TUL1072,2006,6
56555,TUL911,0.0,TCE,2006-04-19,UG/L,ND,0.5,36.40104835,-119.1164732,DOMESTIC,,,,GAMA,TUL911,TUL911,2006,4
56566,TUL1025,0.0,TCE,2006-05-23,UG/L,ND,0.5,36.55330123,-119.3400895,DOMESTIC,,,,GAMA,TUL1025,TUL1025,2006,5
56578,TUL1014,0.0,TCE,2006-05-25,UG/L,ND,0.5,36.51792053,-119.4581314,DOMESTIC,,,,GAMA,TUL1014,TUL1014,2006,5
56777,TUL1056,0.0,TCE,2006-06-13,UG/L,ND,0.5,36.31654753,-119.204095,DOMESTIC,,,,GAMA,TUL1056,TUL1056,2006,6
56796,TUL1031,0.0,TCE,2006-05-24,UG/L,ND,0.5,36.51149458,-119.50589340000002,DOMESTIC,,,,GAMA,TUL1031,TUL1031,2006,5
56830,TUL997,0.0,TCE,2006-05-17,UG/L,ND,0.5,36.13455389,-119.03914109999998,DOMESTIC,,,,GAMA,TUL997,TUL997,2006,5
57062,SD 926,0.5,TCE,2008-12-16,UG/L,<,0.5,33.057301603,-116.62186214100001,DOMESTIC,,,,GAMA,SD 926,SD 926,2008,12
57601,MON108,0.5,TCE,2011-05-04,UG/L,<,0.5,36.82182854,-121.642439,DOMESTIC,,,,GAMA,MON108,MON108,2011,5
57693,MON178,0.5,TCE,2011-06-29,UG/L,<,0.5,36.80631279999999,-121.71300579999999,DOMESTIC,,,,GAMA,MON178,MON178,2011,6
57730,MON169,0.5,TCE,2011-06-16,UG/L,<,0.5,36.861639399999994,-121.72301110000001,DOMESTIC,,,,GAMA,MON169,MON169,2011,6
57923,MON133,0.5,TCE,2011-05-19,UG/L,<,0.5,36.84699093,-121.70654750000001,DOMESTIC,,,,GAMA,MON133,MON133,2011,5
58007,MON124,0.5,TCE,2011-05-12,UG/L,<,0.5,36.88150509,-121.7298382,DOMESTIC,,,,GAMA,MON124,MON124,2011,5
58049,MON161,0.5,TCE,2011-06-15,UG/L,<,0.5,36.28284283,-121.45864250000001,DOMESTIC,,,,GAMA,MON161,MON161,2011,6
58421,SD 824,0.5,TCE,2008-05-14,UG/L,<,0.5,33.09292507,-116.83607859999998,DOMESTIC,,,,GAMA,SD 824,SD 824,2008,5
58552,SD 895,0.5,TCE,2008-06-19,UG/L,<,0.5,32.59790882,-116.5035192,DOMESTIC,,,,GAMA,SD 895,SD 895,2008,6
58598,TUL1063,0.0,TCE,2006-06-14,UG/L,ND,0.5,36.11050109,-118.8545283,DOMESTIC,,,,GAMA,TUL1063,TUL1063,2006,6
58612,SD 884,0.5,TCE,2008-06-12,UG/L,<,0.5,32.80813488,-116.77427970000001,DOMESTIC,,,,GAMA,SD 884,SD 884,2008,6
58660,SD 862,0.5,TCE,2008-06-10,UG/L,<,0.5,32.90345485,-116.89998229999999,DOMESTIC,,,,GAMA,SD 862,SD 862,2008,6
58711,TUL1087,0.0,TCE,2006-06-20,UG/L,ND,0.5,36.61057686,-119.099575551,DOMESTIC,,,,GAMA,TUL1087,TUL1087,2006,6
58725,SD 825,0.5,TCE,2008-05-15,UG/L,<,0.5,33.07225464,-116.9429111,DOMESTIC,,,,GAMA,SD 825,SD 825,2008,5
58807,SD 928,0.5,TCE,2009-01-21,UG/L,<,0.5,32.973581173,-116.798871698,DOMESTIC,,,,GAMA,SD 928,SD 928,2009,1
58865,TUL993,0.0,TCE,2006-05-17,UG/L,ND,0.5,36.00726087,-118.8981507,DOMESTIC,,,,GAMA,TUL993,TUL993,2006,5
58909,SD 860,0.5,TCE,2008-06-05,UG/L,<,0.5,32.95164769,-116.96520459999999,DOMESTIC,,,,GAMA,SD 860,SD 860,2008,6
58976,SD 945,0.5,TCE,2009-01-06,UG/L,<,0.5,32.623188897,-116.415285021,DOMESTIC,,,,GAMA,SD 945,SD 945,2009,1
59032,SD 853,0.5,TCE,2008-06-03,UG/L,<,0.5,33.30749443,-117.23852099999999,DOMESTIC,,,,GAMA,SD 853,SD 853,2008,6
59042,SD 831,0.5,TCE,2008-05-20,UG/L,<,0.5,33.00724108,-116.82312079999998,DOMESTIC,,,,GAMA,SD 831,SD 831,2008,5
59150,SD 847,0.5,TCE,2008-05-29,UG/L,<,0.5,33.30199035,-117.26210230000001,DOMESTIC,,,,GAMA,SD 847,SD 847,2008,5
59160,SD 805,0.5,TCE,2008-04-30,UG/L,<,0.5,33.00716669,-116.788182,DOMESTIC,,,,GAMA,SD 805,SD 805,2008,4
59171,SD 866,0.5,TCE,2008-06-11,UG/L,<,0.5,32.87316356,-116.87766540000001,DOMESTIC,,,,GAMA,SD 866,SD 866,2008,6
59182,TUL939,0.0,TCE,2006-04-26,UG/L,ND,0.5,36.22517556,-119.37809070000002,DOMESTIC,,,,GAMA,TUL939,TUL939,2006,4
59236,TUL1055,0.0,TCE,2006-06-13,UG/L,ND,0.5,36.20336470000001,-119.4721303,DOMESTIC,,,,GAMA,TUL1055,TUL1055,2006,6
59279,SD 851,0.5,TCE,2008-05-28,UG/L,<,0.5,33.44226711,-117.3093118,DOMESTIC,,,,GAMA,SD 851,SD 851,2008,5
59299,TUL916,0.0,TCE,2006-04-19,UG/L,ND,0.5,36.33979823,-119.0296388,DOMESTIC,,,,GAMA,TUL916,TUL916,2006,4
59309,SD 878,0.5,TCE,2008-06-17,UG/L,<,0.5,32.8202305,-116.63812560000001,DOMESTIC,,,,GAMA,SD 878,SD 878,2008,6
59372,SD 811,0.5,TCE,2008-05-06,UG/L,<,0.5,33.01446954,-116.8808817,DOMESTIC,,,,GAMA,SD 811,SD 811,2008,5
59408,SD 822,0.5,TCE,2008-05-14,UG/L,<,0.5,33.10034971,-116.79004270000001,DOMESTIC,,,,GAMA,SD 822,SD 822,2008,5
59453,TUL1088,0.0,TCE,2006-06-20,UG/L,ND,0.5,36.511682392,-119.139667345,DOMESTIC,,,,GAMA,TUL1088,TUL1088,2006,6
59518,SD 807,0.5,TCE,2008-05-01,UG/L,<,0.5,32.97235031,-116.9114967,DOMESTIC,,,,GAMA,SD 807,SD 807,2008,5
59548,SD 857,0.5,TCE,2008-06-04,UG/L,<,0.5,33.30522649,-117.2359771,DOMESTIC,,,,GAMA,SD 857,SD 857,2008,6
59699,TUL1015,0.0,TCE,2006-05-23,UG/L,ND,0.5,36.54389643,-119.1899783,DOMESTIC,,,,GAMA,TUL1015,TUL1015,2006,5
59803,TUL936,0.0,TCE,2006-04-26,UG/L,ND,0.5,36.22924628,-119.45743519999999,DOMESTIC,,,,GAMA,TUL936,TUL936,2006,4
59830,TUL941,0.0,TCE,2006-04-25,UG/L,ND,0.5,36.20069615,-119.2790136,DOMESTIC,,,,GAMA,TUL941,TUL941,2006,4
59869,SD 804,0.5,TCE,2008-04-30,UG/L,<,0.5,33.01809601,-116.81754340000002,DOMESTIC,,,,GAMA,SD 804,SD 804,2008,4
60069,SD 821,0.5,TCE,2008-05-13,UG/L,<,0.5,33.083326,-116.71338600000001,DOMESTIC,,,,GAMA,SD 821,SD 821,2008,5
60164,TUL966,0.0,TCE,2006-05-10,UG/L,ND,0.5,36.64855507,-119.00103870000001,DOMESTIC,,,,GAMA,TUL966,TUL966,2006,5
60185,SD 850,0.5,TCE,2008-05-06,UG/L,<,0.5,33.01384993,-116.80600530000001,DOMESTIC,,,,GAMA,SD 850,SD 850,2008,5
60217,SD 927,0.5,TCE,2008-12-17,UG/L,<,0.5,33.06746345,-116.816057034,DOMESTIC,,,,GAMA,SD 927,SD 927,2008,12
60239,TUL965,0.0,TCE,2006-05-10,UG/L,ND,0.5,36.61223085,-119.0121847,DOMESTIC,,,,GAMA,TUL965,TUL965,2006,5
60278,TUL1002,0.0,TCE,2006-05-16,UG/L,ND,0.5,36.22598895,-118.8403222,DOMESTIC,,,,GAMA,TUL1002,TUL1002,2006,5
60325,TEH 900,0.0,TCE,2005-05-26,UG/L,ND,,40.0515351,-122.10163999999999,DOMESTIC,,,,GAMA,TEH 900,Fox Street,2005,5
60378,TEH 842,0.0,TCE,2005-05-17,UG/L,ND,,40.012453416999996,-122.09159594,DOMESTIC,,,,GAMA,TEH 842,Sherman Street,2005,5
60391,TEH 852,0.0,TCE,2005-05-18,UG/L,ND,,40.045256204,-122.092527728,DOMESTIC,,,,GAMA,TEH 852,Rue Jenny Lane,2005,5
60409,TEH 726,0.0,TCE,2005-04-26,UG/L,ND,,40.043462026,-122.10455039799999,DOMESTIC,,,,GAMA,TEH 726,Butler Street,2005,4
60421,TEH 767,0.0,TCE,2005-04-27,UG/L,ND,,40.047860504,-122.1081852,DOMESTIC,,,,GAMA,TEH 767,Taft Street,2005,4
60446,TEH 890,0.0,TCE,2005-06-01,UG/L,ND,,40.011981,-122.0811644,DOMESTIC,,,,GAMA,TEH 890,Sherman Street,2005,6
60478,TEH 866,0.0,TCE,2005-05-26,UG/L,ND,,40.0386249,-122.1067956,DOMESTIC,,,,GAMA,TEH 866,Marek Road,2005,5
60548,TEH 840,0.0,TCE,2005-05-17,UG/L,ND,,40.0146195,-122.0892535,DOMESTIC,,,,GAMA,TEH 840,Roosevelt Avenue,2005,5
60809,TEH 832,0.0,TCE,2005-05-20,UG/L,ND,,40.015631725,-122.09225509299999,DOMESTIC,,,,GAMA,TEH 832,Lee Street,2005,5
60860,TEH 729,0.0,TCE,2005-04-27,UG/L,ND,,40.04090376,-122.106813801,DOMESTIC,,,,GAMA,TEH 729,Hollis Street,2005,4
60919,TEH 835,0.0,TCE,2005-05-19,UG/L,ND,,40.049532742,-122.08872198200001,DOMESTIC,,,,GAMA,TEH 835,Billberry Court,2005,5
61000,TEH 823,0.0,TCE,2005-06-02,UG/L,ND,,40.01517466,-122.08779398899999,DOMESTIC,,,,GAMA,TEH 823,Lee Street,2005,6
61061,TEH 857,0.0,TCE,2005-06-01,UG/L,ND,,40.015201,-122.09228600000002,DOMESTIC,,,,GAMA,TEH 857,Lee Street,2005,6
61076,TEH 865,0.0,TCE,2005-05-26,UG/L,ND,,40.0433381,-122.1131517,DOMESTIC,,,,GAMA,TEH 865,Kellogg Court,2005,5
61128,TEH 882,0.0,TCE,2005-05-25,UG/L,ND,,40.05083,-122.1093578,DOMESTIC,,,,GAMA,TEH 882,Brook Street,2005,5
61324,TEH 750,0.0,TCE,2005-04-28,UG/L,ND,,40.259169939,-122.27667002,DOMESTIC,,,,GAMA,TEH 750,Old Mission Drive,2005,4
61454,TEH 789,0.0,TCE,2005-04-26,UG/L,ND,,40.28351438,-122.320624965,DOMESTIC,,,,GAMA,TEH 789,Hummingbird Lane,2005,4
61496,TEH 688,0.0,TCE,2005-04-19,UG/L,ND,,40.256646210999996,-122.21265315299999,DOMESTIC,,,,GAMA,TEH 688,W. Wallen Road,2005,4
61868,TEH 776,0.0,TCE,2005-05-05,UG/L,ND,,40.239326615,-122.27870908700001,DOMESTIC,,,,GAMA,TEH 776,Vintage Drive,2005,5
61901,TEH 833,0.0,TCE,2005-05-18,UG/L,ND,,40.255201008,-122.207816027,DOMESTIC,,,,GAMA,TEH 833,Brent Road,2005,5
62132,TEH 856,0.0,TCE,2005-05-20,UG/L,ND,,40.178051025,-122.326357219,DOMESTIC,,,,GAMA,TEH 856,Urban Lane,2005,5
62396,TEH 794,0.0,TCE,2005-05-11,UG/L,ND,,40.248051154,-122.204865149,DOMESTIC,,,,GAMA,TEH 794,Oly Way,2005,5
62421,TEH 675,0.0,TCE,2005-04-12,UG/L,ND,,40.29829713,-122.29756499700001,DOMESTIC,,,,GAMA,TEH 675,Hooker Creek Road,2005,4
62481,TEH 730,0.0,TCE,2005-04-27,UG/L,ND,,40.24562434,-122.205625126,DOMESTIC,,,,GAMA,TEH 730,China Rapids Drive,2005,4
62533,TEH 736,0.0,TCE,2005-04-20,UG/L,ND,,40.28321434,-122.18783675799999,DOMESTIC,,,,GAMA,TEH 736,Bend Ferry,2005,4
62623,TEH 696,0.0,TCE,2005-04-19,UG/L,ND,,40.272875866999996,-122.388600016,DOMESTIC,,,,GAMA,TEH 696,South Lake Road,2005,4
62699,TEH 800,0.0,TCE,2005-05-03,UG/L,ND,,40.252966033,-122.21488901,DOMESTIC,,,,GAMA,TEH 800,Ash Lane,2005,5
62939,YUB 203,0.5,TCE,2002-05-09,UG/L,<,,39.049471667,-121.62066882100001,DOMESTIC,,,,GAMA,YUB 203,Holmes Avenue,2002,5
63063,YUB 307,0.5,TCE,2002-05-20,UG/L,<,,39.190406111,-121.514822144,DOMESTIC,,,,GAMA,YUB 307,Walnut Avenue,2002,5
63098,YUB 288,0.5,TCE,2002-05-14,UG/L,<,,39.123443627,-121.45213133799999,DOMESTIC,,,,GAMA,YUB 288,N Beale Road,2002,5
63176,YUB 216,0.5,TCE,2002-05-09,UG/L,<,,39.332165925,-121.27150588100001,DOMESTIC,,,,GAMA,YUB 216,Josselyn Hill,2002,5
63230,YUB 270,0.5,TCE,2002-05-08,UG/L,<,,39.059104639,-121.331117692,DOMESTIC,,,,GAMA,YUB 270,Hokan Lane,2002,5
63320,YUB 324P,0.5,TCE,2002-01-09,UG/L,<,,39.02546254,-120.99867617,DOMESTIC,,,,GAMA,YUB 324P,Haywire Ranch Road,2002,1
63381,YUB 249,0.5,TCE,2002-06-13,UG/L,<,,38.989258002,-120.985756867,DOMESTIC,,,,GAMA,YUB 249,Hilltop Court,2002,6
63554,YUB 266,0.5,TCE,2002-06-03,UG/L,<,,39.449597834,-121.26660982,DOMESTIC,,,,GAMA,YUB 266,Finch Way,2002,6
63673,YUB 287,0.5,TCE,2002-05-28,UG/L,<,,39.508676928,-121.29239543700001,DOMESTIC,,,,GAMA,YUB 287,New York Flat Road,2002,5
63752,YUB 319P,0.5,TCE,2002-01-07,UG/L,<,,38.67134368,-120.67086825,DOMESTIC,,,,GAMA,YUB 319P,Paramount Pass,2002,1
63883,YUB 309,0.5,TCE,2002-04-29,UG/L,<,,39.314081754,-121.275511646,DOMESTIC,,,,GAMA,YUB 309,Winding Way,2002,4
64090,YUB 294,0.5,TCE,2002-06-14,UG/L,<,,39.3149764,-121.27121068,DOMESTIC,,,,GAMA,YUB 294,Regent Way,2002,6
64105,YUB 274,0.5,TCE,2002-05-28,UG/L,<,,39.475707645,-121.259633237,DOMESTIC,,,,GAMA,YUB 274,La Porte Road,2002,5
64142,YUB 318,0.5,TCE,2002-05-17,UG/L,<,,39.35149411,-121.266676691,DOMESTIC,,,,GAMA,YUB 318,Rue Montaigne,2002,5
64176,ED 445,1.0,TCE,2003-04-23,UG/L,<,,38.805717200000004,-120.9083781,DOMESTIC,,,,GAMA,ED 445,BEACH VIEW DRIVE,2003,4
64293,ED 439,1.0,TCE,2003-04-10,UG/L,<,,38.72203462,-121.05198200000001,DOMESTIC,,,,GAMA,ED 439,LOVERS LANE,2003,4
64326,ED 655,1.0,TCE,2004-05-24,UG/L,<,,38.820809555,-121.011876146,DOMESTIC,,,,GAMA,ED 655,SALMON FALLS ROAD,2004,5
64380,ED 361,1.0,TCE,2003-03-06,UG/L,<,,38.57861859,-120.9786123,DOMESTIC,,,,GAMA,ED 361,SWIFT ROAD,2003,3
64847,ED 466,1.0,TCE,2003-05-13,UG/L,<,,38.80615565,-120.94549920000001,DOMESTIC,,,,GAMA,ED 466,CLARK MOUNTAIN  ROAD,2003,5
64857,ED 469,1.0,TCE,2003-05-13,UG/L,<,,38.80552586,-120.95990800000001,DOMESTIC,,,,GAMA,ED 469,HALLELUJAH TRAIL,2003,5
65067,ED 554,1.0,TCE,2004-06-01,UG/L,<,,38.817653135,-120.997435695,DOMESTIC,,,,GAMA,ED 554,QUAIL HOLLOW ROAD,2004,6
65080,ED 407,1.0,TCE,2003-03-17,UG/L,<,,38.79469298,-120.9037003,DOMESTIC,,,,GAMA,ED 407,MOUNTAIN VIEW DRIVE,2003,3
65110,ED 637,1.0,TCE,2004-05-19,UG/L,<,,38.925585386,-120.916696273,DOMESTIC,,,,GAMA,ED 637,ENGLISH LANE,2004,5
65170,ED 340,1.0,TCE,2003-02-25,UG/L,<,,38.6735112,-120.74831680000001,DOMESTIC,,,,GAMA,ED 340,WILDERNESS WAY,2003,2
65338,ED 665,1.0,TCE,2004-05-27,UG/L,<,,38.684900726,-120.95415414700001,DOMESTIC,,,,GAMA,ED 665,CARLSON DRIVE,2004,5
65377,ED 318,1.0,TCE,2003-02-13,UG/L,<,,38.72806043,-120.7325031,DOMESTIC,,,,GAMA,ED 318,MINING BROOK COURT,2003,2
65574,ED 662,1.0,TCE,2004-05-25,UG/L,<,,38.888461929,-120.988846023,DOMESTIC,,,,GAMA,ED 662,AHWAHNEE WAY,2004,5
65601,ED 679,1.0,TCE,2004-06-02,UG/L,<,,38.675655291999995,-120.956835822,DOMESTIC,,,,GAMA,ED 679,RAMADA WAY,2004,6
65665,ED 402,1.0,TCE,2003-03-26,UG/L,<,,38.61646357,-121.0152035,DOMESTIC,,,,GAMA,ED 402,RYAN RANCH ROAD,2003,3
65709,ED 576,1.0,TCE,2004-05-05,UG/L,<,,38.694844081,-120.950573035,DOMESTIC,,,,GAMA,ED 576,CARLSON DRIVE,2004,5
65724,ED 608,1.0,TCE,2004-05-06,UG/L,<,,38.792985367,-121.03489752200001,DOMESTIC,,,,GAMA,ED 608,FISHERMAN LANE,2004,5
65765,ED 329,1.0,TCE,2003-02-19,UG/L,<,,38.70930109,-120.7120365,DOMESTIC,,,,GAMA,ED 329,FORT JIM ROAD,2003,2
65817,ED 416,1.0,TCE,2003-03-26,UG/L,<,,38.62120539,-121.0269246,DOMESTIC,,,,GAMA,ED 416,RYAN RANCH ROAD,2003,3
65872,ED 537,1.0,TCE,2004-04-13,UG/L,<,,38.6278621,-120.72549864,DOMESTIC,,,,GAMA,ED 537,FREEDOM,2004,4
65952,ED 368,1.0,TCE,2003-03-12,UG/L,<,,38.60638576,-120.96744109999999,DOMESTIC,,,,GAMA,ED 368,BULLARD DRIVE,2003,3
65992,ED 513,1.0,TCE,2004-04-14,UG/L,<,,38.814445479,-120.90131915399999,DOMESTIC,,,,GAMA,ED 513,SCOTT ROAD,2004,4
66060,ED 337,1.0,TCE,2003-02-21,UG/L,<,,38.72121771,-120.784231,DOMESTIC,,,,GAMA,ED 337,NICKS LANE,2003,2
66068,ED 527,1.0,TCE,2004-04-21,UG/L,<,,38.69926629999999,-120.977419197,DOMESTIC,,,,GAMA,ED 527,BAINBRIDGE AVENUE,2004,4
66157,ED 504,1.0,TCE,2004-04-22,UG/L,<,,38.885106628,-120.989749646,DOMESTIC,,,,GAMA,ED 504,WYTOSHI WAY,2004,4
66244,ED 578,1.0,TCE,2004-04-26,UG/L,<,,38.801913331,-120.8190382,DOMESTIC,,,,GAMA,ED 578,HIGHWAY 193,2004,4
66268,ED 390,1.0,TCE,2003-03-25,UG/L,<,,38.77610634,-120.89953899999999,DOMESTIC,,,,GAMA,ED 390,THOMPSON HILL ROAD,2003,3
66316,ED 538,1.0,TCE,2004-04-27,UG/L,<,,38.763283136999995,-120.76077350700001,DOMESTIC,,,,GAMA,ED 538,MOSQUITO ROAD,2004,4
66326,ED 560,1.0,TCE,2004-04-20,UG/L,<,,38.669506439,-120.87496806,DOMESTIC,,,,GAMA,ED 560,KINGVALE ROAD,2004,4
66447,ED 555,1.0,TCE,2004-04-21,UG/L,<,,38.816941346,-121.000790202,DOMESTIC,,,,GAMA,ED 555,QUAIL HOLLOW ROAD,2004,4
66478,ED 651,1.0,TCE,2004-05-20,UG/L,<,,38.884220528,-121.002128212,DOMESTIC,,,,GAMA,ED 651,CHERRY ACRES ROAD,2004,5
66515,ED 362,1.0,TCE,2003-03-06,UG/L,<,,38.56520137,-121.02213459999999,DOMESTIC,,,,GAMA,ED 362,SETTLERS TRAIL,2003,3
66598,ED 542,1.0,TCE,2004-04-12,UG/L,<,,38.788773926,-121.01596360799999,DOMESTIC,,,,GAMA,ED 542,SALMON FALLS ROAD,2004,4
66612,ED 579,1.0,TCE,2004-04-27,UG/L,<,,38.691789267,-120.95617609700001,DOMESTIC,,,,GAMA,ED 579,CARLSON COURT,2004,4
66651,ED 351,1.0,TCE,2003-02-25,UG/L,<,,38.7555856,-120.8525202,DOMESTIC,,,,GAMA,ED 351,WALLACE ROAD,2003,2
66711,ED 548,1.0,TCE,2004-04-12,UG/L,<,,38.65379445,-120.626812496,DOMESTIC,,,,GAMA,ED 548,HAPPY VALLEY ROAD,2004,4
66939,ED 486,1.0,TCE,2003-05-28,UG/L,<,,38.7834078,-120.949817,DOMESTIC,,,,GAMA,ED 486,BIG CURVE COURT,2003,5
67047,ED 397,1.0,TCE,2003-03-28,UG/L,<,,38.67713309,-120.90381770000002,DOMESTIC,,,,GAMA,ED 397,GRANDVIEW CIRCLE,2003,3
67350,ED 500,1.0,TCE,2004-04-12,UG/L,<,,38.887612325999996,-120.98375679200001,DOMESTIC,,,,GAMA,ED 500,SHAVER ROAD,2004,4
67376,ED 516,1.0,TCE,2004-04-15,UG/L,<,,38.816688783000004,-120.901848433,DOMESTIC,,,,GAMA,ED 516,PROSPECTORS ROAD,2004,4
67449,ED 572,1.0,TCE,2004-04-28,UG/L,<,,38.811222521,-121.02419072100001,DOMESTIC,,,,GAMA,ED 572,TRABIN WAY,2004,4
67564,ED 395,1.0,TCE,2003-03-26,UG/L,<,,38.70136727,-120.9802459,DOMESTIC,,,,GAMA,ED 395,VALLEY VIEW ROAD,2003,3
67632,ED 389,1.0,TCE,2003-03-25,UG/L,<,,38.71239183,-120.9169203,DOMESTIC,,,,GAMA,ED 389,LOOKING GLASS LANE,2003,3
67665,ED 629,1.0,TCE,2004-05-18,UG/L,<,,38.763604195,-120.985594997,DOMESTIC,,,,GAMA,ED 629,LUNEMAN ROAD,2004,5
67725,ED 530,1.0,TCE,2004-04-12,UG/L,<,,38.628730078000004,-120.722226606,DOMESTIC,,,,GAMA,ED 530,LOMA DEL ORO COURT,2004,4
67787,ED 357,1.0,TCE,2003-03-05,UG/L,<,,38.57845220000001,-120.981416,DOMESTIC,,,,GAMA,ED 357,BRYANT ROAD,2003,3
67909,ED 669,1.0,TCE,2004-05-26,UG/L,<,,38.80192242,-120.916239786,DOMESTIC,,,,GAMA,ED 669,AMOLOC LANE,2004,5
67939,ED 598,1.0,TCE,2004-05-04,UG/L,<,,38.838962074,-121.02003278,DOMESTIC,,,,GAMA,ED 598,CANTINA DRIVE,2004,5
67950,ED 635,1.0,TCE,2004-05-10,UG/L,<,,38.829183791,-121.063354672,DOMESTIC,,,,GAMA,ED 635,BLARNEY WAY,2004,5
68102,ED 591,1.0,TCE,2004-05-07,UG/L,<,,38.593604114,-120.655491689,DOMESTIC,,,,GAMA,ED 591,PERRY CREEK ROAD,2004,5
68199,ED 364,1.0,TCE,2003-03-06,UG/L,<,,38.54810109,-120.93632590000001,DOMESTIC,,,,GAMA,ED 364,JOAQUIN WAY,2003,3
68355,ED 630,1.0,TCE,2004-05-12,UG/L,<,,38.921097640999996,-120.92039784,DOMESTIC,,,,GAMA,ED 630,HOBOKEN CREEK ROAD,2004,5
68471,SD 947,0.5,TCE,2009-01-20,UG/L,<,0.5,33.226576211,-116.323326708,DOMESTIC,,,,GAMA,SD 947,SD 947,2009,1
68687,TUL1093,0.0,TCE,2006-06-21,UG/L,ND,0.5,36.437399604,-119.322014197,DOMESTIC,,,,GAMA,TUL1093,TUL1093,2006,6
68743,TUL1021,0.0,TCE,2006-05-23,UG/L,ND,0.5,36.54576956,-119.1970398,DOMESTIC,,,,GAMA,TUL1021,TUL1021,2006,5
68772,TUL991,0.0,TCE,2006-05-16,UG/L,ND,0.5,36.25354428,-119.0918844,DOMESTIC,,,,GAMA,TUL991,TUL991,2006,5
68819,TUL1010,0.0,TCE,2006-05-24,UG/L,ND,0.5,36.50574822,-119.50171940000001,DOMESTIC,,,,GAMA,TUL1010,TUL1010,2006,5
68912,TUL1007,0.0,TCE,2006-06-07,UG/L,ND,0.5,36.50264718,-119.41292109999999,DOMESTIC,,,,GAMA,TUL1007,TUL1007,2006,6
68949,TUL928,0.0,TCE,2006-04-20,UG/L,ND,0.5,36.47043664,-119.22271140000001,DOMESTIC,,,,GAMA,TUL928,TUL928,2006,4
69156,TUL1089,0.0,TCE,2006-06-20,UG/L,ND,0.5,36.532828288000005,-119.25123519,DOMESTIC,,,,GAMA,TUL1089,TUL1089,2006,6
69307,TUL901,0.0,TCE,2006-04-18,UG/L,ND,0.5,36.29637747,-119.253527,DOMESTIC,,,,GAMA,TUL901,TUL901,2006,4
69365,TUL1103,0.0,TCE,2006-06-20,UG/L,ND,0.5,36.366886791999995,-119.27750373299999,DOMESTIC,,,,GAMA,TUL1103,TUL1103,2006,6
69516,TUL1081,0.0,TCE,2006-06-15,UG/L,ND,0.5,36.23634620000001,-119.2415254,DOMESTIC,,,,GAMA,TUL1081,TUL1081,2006,6
69569,TUL973,0.0,TCE,2006-05-11,UG/L,ND,0.5,36.49349687,-119.2877993,DOMESTIC,,,,GAMA,TUL973,TUL973,2006,5
69584,TUL940,0.0,TCE,2006-04-25,UG/L,ND,0.5,36.088,-119.125,DOMESTIC,,,,GAMA,TUL940,TUL940,2006,4
69760,MON180,0.5,TCE,2011-06-28,UG/L,<,0.5,36.57039123,-121.9163355,DOMESTIC,,,,GAMA,MON180,MON180,2011,6
69837,SD 904,0.5,TCE,2008-12-02,UG/L,<,0.5,33.081314729,-116.65905097,DOMESTIC,,,,GAMA,SD 904,SD 904,2008,12
70416,MON151,0.5,TCE,2011-06-07,UG/L,<,0.5,36.50946359,-121.7630692,DOMESTIC,,,,GAMA,MON151,MON151,2011,6
70486,MON179,0.5,TCE,2011-06-27,UG/L,<,0.5,36.79387003,-121.67166599999999,DOMESTIC,,,,GAMA,MON179,MON179,2011,6
70501,SD 932,0.5,TCE,2008-12-18,UG/L,<,0.5,33.259703635,-116.800012629,DOMESTIC,,,,GAMA,SD 932,SD 932,2008,12
70547,MON141,0.5,TCE,2011-05-24,UG/L,<,0.5,36.78002866,-121.6616409,DOMESTIC,,,,GAMA,MON141,MON141,2011,5
70723,SD 915,0.5,TCE,2008-12-04,UG/L,<,0.5,33.063093451,-116.602213579,DOMESTIC,,,,GAMA,SD 915,SD 915,2008,12
70762,MON170,0.0,TCE,2011-06-21,UG/L,ND,0.5,35.99466168,-121.13919059999999,DOMESTIC,,,,GAMA,MON170,MON170,2011,6
70858,MON140,0.5,TCE,2011-05-24,UG/L,<,0.5,36.85558892,-121.6788456,DOMESTIC,,,,GAMA,MON140,MON140,2011,5
70955,SD 820,0.5,TCE,2008-05-13,UG/L,<,0.5,33.06508789,-116.84229340000002,DOMESTIC,,,,GAMA,SD 820,SD 820,2008,5
71067,MON119,0.5,TCE,2011-05-11,UG/L,<,0.5,36.78859035,-121.6786415,DOMESTIC,,,,GAMA,MON119,MON119,2011,5
71119,SD 806,0.5,TCE,2008-04-30,UG/L,<,0.5,32.99967286,-116.84379960000001,DOMESTIC,,,,GAMA,SD 806,SD 806,2008,4
71130,SD 859,0.5,TCE,2008-06-05,UG/L,<,0.5,32.79852313,-116.85970320000001,DOMESTIC,,,,GAMA,SD 859,SD 859,2008,6
71442,SD 826,0.5,TCE,2008-05-15,UG/L,<,0.5,33.09117265,-116.8466656,DOMESTIC,,,,GAMA,SD 826,SD 826,2008,5
71556,TUL927,0.0,TCE,2006-04-20,UG/L,ND,0.5,36.37206353,-118.8474935,DOMESTIC,,,,GAMA,TUL927,TUL927,2006,4
71630,SD 879,0.5,TCE,2008-06-17,UG/L,<,0.5,32.86387286,-116.6285652,DOMESTIC,,,,GAMA,SD 879,SD 879,2008,6
71680,SD 875,0.5,TCE,2008-06-12,UG/L,<,0.5,32.810123600000004,-116.7681148,DOMESTIC,,,,GAMA,SD 875,SD 875,2008,6
71742,SD 886,0.5,TCE,2008-06-18,UG/L,<,0.5,32.64357527,-116.4839405,DOMESTIC,,,,GAMA,SD 886,SD 886,2008,6
72241,SD 890,0.5,TCE,2008-06-19,UG/L,<,0.5,32.61202553,-116.321785,DOMESTIC,,,,GAMA,SD 890,SD 890,2008,6
72317,SD 903,0.5,TCE,2008-12-02,UG/L,<,0.5,33.050961903,-116.64787542100001,DOMESTIC,,,,GAMA,SD 903,SD 903,2008,12
72332,SD 868,0.5,TCE,2008-06-11,UG/L,<,0.5,32.84988599,-116.87658449999999,DOMESTIC,,,,GAMA,SD 868,SD 868,2008,6
72397,TUL964,0.0,TCE,2006-05-10,UG/L,ND,0.5,36.64523017,-119.1671331,DOMESTIC,,,,GAMA,TUL964,TUL964,2006,5
72410,TUL1001,0.0,TCE,2006-05-16,UG/L,ND,0.5,36.24484826,-118.78339150000001,DOMESTIC,,,,GAMA,TUL1001,TUL1001,2006,5
72428,TUL1012,0.0,TCE,2006-05-24,UG/L,ND,0.5,35.94996505,-119.25235430000001,DOMESTIC,,,,GAMA,TUL1012,TUL1012,2006,5
72515,SD 925,0.5,TCE,2009-01-21,UG/L,<,0.5,33.076629536999995,-116.609386896,DOMESTIC,,,,GAMA,SD 925,SD 925,2009,1
72539,SD 846,0.5,TCE,2008-05-29,UG/L,<,0.5,33.3290274,-117.2602551,DOMESTIC,,,,GAMA,SD 846,SD 846,2008,5
72707,TUL1028,0.0,TCE,2006-05-23,UG/L,ND,0.5,36.02674977,-119.2860909,DOMESTIC,,,,GAMA,TUL1028,TUL1028,2006,5
72873,TUL1098,0.0,TCE,2006-06-21,UG/L,ND,0.5,36.353257615,-119.33947102299999,DOMESTIC,,,,GAMA,TUL1098,TUL1098,2006,6
72943,SD 848,0.5,TCE,2008-05-28,UG/L,<,0.5,33.29242605,-117.252495,DOMESTIC,,,,GAMA,SD 848,SD 848,2008,5
72958,SD 839,0.5,TCE,2008-05-27,UG/L,<,0.5,32.7550698,-116.9062125,DOMESTIC,,,,GAMA,SD 839,SD 839,2008,5
72995,TUL1000,0.0,TCE,2006-05-18,UG/L,ND,0.5,35.99943666,-119.3041281,DOMESTIC,,,,GAMA,TUL1000,TUL1000,2006,5
73065,TEH 849,0.0,TCE,2005-05-18,UG/L,ND,,40.016076419,-122.08950405899999,DOMESTIC,,,,GAMA,TEH 849,Roosevelt Avenue,2005,5
73262,TEH 846,0.0,TCE,2005-05-17,UG/L,ND,,40.041650477,-122.092819051,DOMESTIC,,,,GAMA,TEH 846,Buena Vista Avenue,2005,5
73374,TEH 864,0.0,TCE,2005-05-26,UG/L,ND,,40.0426787,-122.11350159999998,DOMESTIC,,,,GAMA,TEH 864,Kellogg Court,2005,5
73385,TEH 727,0.0,TCE,2005-04-26,UG/L,ND,,40.044052359,-122.107239749,DOMESTIC,,,,GAMA,TEH 727,Butler Street,2005,4
73466,TEH 897,0.0,TCE,2005-06-03,UG/L,ND,,40.047873100000004,-122.1074106,DOMESTIC,,,,GAMA,TEH 897,Hollis Street,2005,6
73537,TEH 819,0.0,TCE,2005-05-19,UG/L,ND,,40.035888881999995,-122.096624061,DOMESTIC,,,,GAMA,TEH 819,Sherwood Blvd.,2005,5
73555,TEH 875,0.0,TCE,2005-06-01,UG/L,ND,,40.034375700000005,-122.106706,DOMESTIC,,,,GAMA,TEH 875,Marek Road,2005,6
73571,TEH 780,0.0,TCE,2005-04-27,UG/L,ND,,40.048359939,-122.11064387200001,DOMESTIC,,,,GAMA,TEH 780,Taft Street,2005,4
73596,TEH 843,0.0,TCE,2005-05-17,UG/L,ND,,40.012453489,-122.09106021299999,DOMESTIC,,,,GAMA,TEH 843,Sherman Street,2005,5
73646,TEH 822,0.0,TCE,2005-05-20,UG/L,ND,,40.015662067,-122.08843790899999,DOMESTIC,,,,GAMA,TEH 822,Lee Street,2005,5
73687,TEH 896,0.0,TCE,2005-06-03,UG/L,ND,,40.054523700000004,-122.0697205,DOMESTIC,,,,GAMA,TEH 896,Wilson Road,2005,6
73717,TEH 851,0.0,TCE,2005-05-18,UG/L,ND,,40.040932756,-122.096935304,DOMESTIC,,,,GAMA,TEH 851,Sherwood Blvd.,2005,5
73934,TEH 850,0.0,TCE,2005-05-18,UG/L,ND,,40.011320369,-122.08965057,DOMESTIC,,,,GAMA,TEH 850,Roosevelt Avenue,2005,5
74028,TEH 741,0.0,TCE,2005-05-04,UG/L,ND,,40.250108761999996,-122.22022259299999,DOMESTIC,,,,GAMA,TEH 741,Parkway Drive,2005,5
74113,TEH 665,0.0,TCE,2005-04-05,UG/L,ND,,40.289124154,-122.425837684,DOMESTIC,,,,GAMA,TEH 665,Austin Lane,2005,4
74433,TEH 765,0.0,TCE,2005-05-12,UG/L,ND,,40.257494905,-122.470734311,DOMESTIC,,,,GAMA,TEH 765,Hwy 36 West,2005,5
74575,TEH 754,0.0,TCE,2005-05-04,UG/L,ND,,40.241651074,-122.243455163,DOMESTIC,,,,GAMA,TEH 754,Penneleme Road,2005,5
74621,TEH 678,0.0,TCE,2005-04-12,UG/L,ND,,40.296169317,-122.297258791,DOMESTIC,,,,GAMA,TEH 678,Hooker Creek Road,2005,4
74692,TEH 655,0.0,TCE,2005-04-06,UG/L,ND,,40.349202756,-122.353376434,DOMESTIC,,,,GAMA,TEH 655,Bowman Road,2005,4
74903,TEH 740,0.0,TCE,2005-04-19,UG/L,ND,,40.292731097,-122.29096674799999,DOMESTIC,,,,GAMA,TEH 740,Clay Court,2005,4
74960,TEH 778,0.0,TCE,2005-05-03,UG/L,ND,,40.250257473000005,-122.222855107,DOMESTIC,,,,GAMA,TEH 778,Parkway Drive,2005,5
75086,TEH 748,0.0,TCE,2005-05-04,UG/L,ND,,40.252172493,-122.220200042,DOMESTIC,,,,GAMA,TEH 748,Parkway Drive,2005,5
75213,TEH 744,0.0,TCE,2005-05-03,UG/L,ND,,40.240176672,-122.207472668,DOMESTIC,,,,GAMA,TEH 744,China Rapids,2005,5
75237,TEH 699,0.0,TCE,2005-04-14,UG/L,ND,,40.292100554,-122.36602525100001,DOMESTIC,,,,GAMA,TEH 699,Pack Saddle Road,2005,4
75368,TEH 803,0.0,TCE,2005-05-10,UG/L,ND,,40.315449293,-122.19612015,DOMESTIC,,,,GAMA,TEH 803,Rivers Edge Drive,2005,5
75401,TEH 654,0.0,TCE,2005-04-06,UG/L,ND,,40.308209679,-122.46042419,DOMESTIC,,,,GAMA,TEH 654,Bowman Road,2005,4
75411,TEH 656,0.0,TCE,2005-04-06,UG/L,ND,,40.296740893,-122.269462332,DOMESTIC,,,,GAMA,TEH 656,Scenic Drive,2005,4
75435,TEH 694,0.0,TCE,2005-04-21,UG/L,ND,,40.296337035,-122.402760839,DOMESTIC,,,,GAMA,TEH 694,Benson Road,2005,4
75564,TEH 781,0.0,TCE,2005-06-01,UG/L,ND,,40.2621409,-122.22705090000001,DOMESTIC,,,,GAMA,TEH 781,Orca Lane,2005,6
75873,YUB 317,0.5,TCE,2002-05-14,UG/L,<,,39.051965275,-121.555951654,DOMESTIC,,,,GAMA,YUB 317,4th Street,2002,5
75928,YUB 286,0.5,TCE,2002-05-29,UG/L,<,,39.4561165,-121.0353966,DOMESTIC,,,,GAMA,YUB 286,Mountain House Road,2002,5
76015,YUB 261,0.5,TCE,2002-06-09,UG/L,<,,39.162108303000004,-121.310071741,DOMESTIC,,,,GAMA,YUB 261,Crescent Way,2002,6
76066,YUB 304,0.5,TCE,2002-04-26,UG/L,<,,39.305862184,-121.36945373399999,DOMESTIC,,,,GAMA,YUB 304,Shiloh Lane,2002,4
